City_ID,City_Name,Cloudiness (%),Country,Date,Humidity (%),Latitude,Longitude,Temperature (F),Wind Speed (mph)
5972291,Havre-St-Pierre,1,CA,1592166333,53,50.23,-63.6,55.67,18.34
6113406,Prince Rupert,90,CA,1592166038,76,54.32,-130.32,55.67,4.7
6089245,Norman Wells,75,CA,1592166334,48,65.28,-126.83,66.47,17.22
2110227,Butaritari,64,KI,1592166334,71,3.07,172.79,82.85,6.98
2065594,Mount Isa,0,AU,1592166186,41,-20.73,139.5,61.07,9.17
5848280,Kapaa,75,US,1592166334,65,22.08,-159.32,82.67,12.75
1507636,Chunskiy,44,RU,1592166334,83,56.08,99.63,58.08,1.88
1490796,Strezhevoy,75,RU,1592166072,75,60.73,77.59,46.67,8.95
2980915,Arrondissement de Saint-Denis,6,FR,1592166335,63,48.92,2.33,66.47,6.93
3369157,Cape Town,75,ZA,1592165701,93,-33.93,18.42,57.47,8.05
2264557,Ponta do Sol,20,PT,1592166335,83,32.67,-17.1,70.07,13.87
3443061,Chui,0,UY,1592166335,59,-33.7,-53.46,49.59,1.39
119374,Qeshm,0,IR,1592166335,70,26.96,56.27,89.87,4.7
5106841,Albany,26,US,1592166132,37,42.6,-73.97,70.27,3.85
4030556,Rikitea,50,PF,1592166336,83,-23.12,-134.97,76.08,16.62
2160517,Launceston,75,AU,1592166264,87,-41.45,147.17,52.27,17.22
2276492,Harper,100,LR,1592166336,86,4.38,-7.72,79.07,7.31
1698289,Pundaguitan,100,PH,1592166336,81,6.37,126.17,81.39,10.54
3833367,Ushuaia,40,AR,1592166227,74,-54.8,-68.3,34.07,3.36
6078372,Moose Factory,1,CA,1592166337,22,51.26,-80.61,75.47,6.93
2132606,Samarai,2,PG,1592166337,85,-10.62,150.67,80.06,14.99
4020109,Atuona,53,PF,1592166327,74,-9.8,-139.03,80.49,15.66
3430545,Morón,0,AR,1592166337,42,-34.65,-58.62,57.27,1.99
1651810,Airai,11,TL,1592166328,100,-8.93,125.41,57.7,4.18
1800101,Nandu,96,CN,1592166337,91,22.85,110.82,76.26,2.48
3423146,Ilulissat,100,GL,1592166338,74,69.22,-51.1,35.87,9.17
3691582,Talara,1,PE,1592166338,73,-4.58,-81.27,68.86,15.84
3361934,Saldanha,0,ZA,1592166338,82,-33.01,17.94,57.47,4.7
6201424,Mataura,95,NZ,1592166338,83,-46.19,168.86,39.27,3.0
3105522,Bereda,1,ES,1592166338,91,43.27,-7.54,58.26,5.99
1798537,Hanyang,100,CN,1592166338,87,32.14,105.51,78.28,2.8
2075265,Busselton,72,AU,1592166338,69,-33.65,115.33,55.27,10.09
3441890,Departamento de Maldonado,0,UY,1592166339,57,-34.67,-54.92,53.28,5.82
5546220,Saint George,1,US,1592166155,10,37.1,-113.58,92.26,6.93
3533462,Acapulco de Juárez,20,MX,1592166079,66,16.86,-99.89,88.07,11.41
530849,Maloyaroslavets,23,RU,1592166339,72,55.01,36.47,61.07,11.18
1539210,Purpe,98,RU,1592166339,78,64.48,76.69,43.27,24.87
964432,Port Alfred,34,ZA,1592166339,90,-33.59,26.89,55.27,3.0
2258378,Loandjili,75,CG,1592166339,88,-4.76,11.86,71.87,3.36
935215,Saint-Philippe,37,RE,1592166339,56,-21.36,55.77,73.67,14.99
2163355,Hobart,20,AU,1592166150,62,-42.88,147.33,55.27,6.93
174743,Tegh,0,AM,1592166115,54,39.56,46.48,62.33,7.74
4032243,Vaini,20,TO,1592166340,69,-21.2,-175.2,73.67,10.29
3868626,Valparaíso,90,CL,1592166170,100,-33.04,-71.63,57.47,16.11
3558315,Gibara,75,CU,1592166340,100,21.11,-76.13,71.87,10.29
2063036,Port Lincoln,6,AU,1592166322,86,-34.73,135.87,58.53,14.03
3652764,Puerto Ayora,40,EC,1592166340,73,-0.74,-90.35,77.27,13.87
4362001,Mayo,1,US,1592166340,46,38.89,-76.51,76.26,3.36
462626,Zilair,0,RU,1592166341,91,52.23,57.44,45.84,2.3
2121385,Severo-Kuril'sk,100,RU,1592166341,92,50.68,156.12,41.32,14.0
5557293,Sitka,90,US,1592166341,87,57.05,-135.33,50.27,3.36
934479,Grand Gaube,1,MU,1592166341,81,-20.01,57.66,70.27,5.01
6170031,Tuktoyaktuk,20,CA,1592166341,48,69.45,-133.04,64.67,11.41
2092164,Lorengau,35,PG,1592166342,75,-2.02,147.27,82.74,7.52
964420,Port Elizabeth,28,ZA,1592166342,51,-33.92,25.57,61.07,8.05
4163566,Martin,40,US,1592166342,62,27.08,-80.42,86.27,9.17
3453150,Ponta Porã,79,BR,1592166297,65,-22.54,-55.73,77.27,5.82
5880054,Barrow,1,US,1592166342,75,71.29,-156.79,44.87,8.05
3355672,Lüderitz,24,NA,1592166342,38,-26.65,15.16,59.27,12.75
2738381,Lata,68,PT,1592166342,78,40.16,-8.33,65.26,4.83
4845585,Westport,1,US,1592166343,46,41.14,-73.36,72.27,9.17
1254046,Tura,98,IN,1592166332,93,25.52,90.22,75.6,4.81
3838233,Salta,20,AR,1592166343,48,-24.79,-65.41,61.07,8.05
1633419,Padang,60,ID,1592166343,78,-0.95,100.35,80.19,2.62
546105,Nikolskoye,7,RU,1592166343,52,59.7,30.79,64.67,6.71
785559,Stara Pazova,34,RS,1592166343,73,44.98,20.16,71.87,5.82
4031574,Provideniya,73,RU,1592166343,76,64.38,-173.3,48.47,4.47
3831208,Qaanaaq,0,GL,1592166344,70,77.48,-69.36,42.03,5.21
1161724,Chabahar,0,IR,1592166344,84,25.29,60.64,85.69,10.04
1058381,Morondava,0,MG,1592166344,58,-20.28,44.28,74.53,13.4
2022572,Khatanga,0,RU,1592166344,42,71.97,102.5,54.3,14.65
3466704,Castro,100,BR,1592166229,90,-24.79,-50.01,57.58,8.72
5364271,Laguna,1,US,1592166344,28,38.42,-121.42,83.26,4.7
3874787,Punta Arenas,90,CL,1592166324,93,-53.15,-70.92,35.87,13.87
2161515,Kiama,0,AU,1592166345,61,-34.68,150.87,55.27,15.99
3366880,Hermanus,98,ZA,1592166345,96,-34.42,19.23,53.28,1.83
1006984,East London,66,ZA,1592166345,30,-33.02,27.91,62.1,8.23
1649150,Bengkulu,40,ID,1592166329,74,-3.8,102.27,76.15,4.0
2236967,Soyo,65,AO,1592166345,88,-6.13,12.37,72.32,4.83
2122090,Pevek,33,RU,1592166330,88,69.7,170.31,37.99,5.28
1733502,Ranau,40,MY,1592166346,88,5.95,116.66,79.07,9.17
6185377,Yellowknife,75,CA,1592166346,42,62.46,-114.35,68.27,21.92
4034551,Faanui,13,PF,1592166346,74,-16.48,-151.75,80.71,8.25
3581194,San Ignacio,75,BZ,1592166346,62,17.16,-89.07,91.27,4.7
1505579,Inta,39,RU,1592166347,82,66.03,60.17,42.53,3.98
3576994,Cockburn Town,40,TC,1592166062,70,21.46,-71.14,86.27,5.82
3471451,Arraial do Cabo,75,BR,1592166283,78,-22.97,-42.03,73.67,14.99
2261740,Vendas Novas,20,PT,1592166347,59,38.68,-8.46,66.47,8.05
3893629,Coquimbo,40,CL,1592166097,77,-29.95,-71.34,59.27,9.17
6096551,Pangnirtung,90,CA,1592166347,74,66.15,-65.71,37.67,17.22
3421765,Nanortalik,39,GL,1592166347,83,60.14,-45.24,38.5,24.25
2112802,Hasaki,75,JP,1592166348,88,35.73,140.83,73.67,6.93
108410,Riyadh,0,SA,1592166228,21,24.69,46.72,91.67,3.36
2194098,Ahipara,2,NZ,1592166348,82,-35.17,173.17,52.65,7.83
1714733,Dingle,100,PH,1592166341,86,11,122.67,78.08,4.7
3517251,Huatulco,40,MX,1592166348,62,15.84,-96.33,88.27,6.33
3418910,Upernavik,100,GL,1592166348,93,72.79,-56.15,33.48,13.4
482432,Tolbazy,0,RU,1592166348,71,54.02,55.88,50.27,6.71
3372707,Ribeira Grande,40,PT,1592166349,72,38.52,-28.7,62.87,8.05
5855927,Hilo,75,US,1592166053,69,19.73,-155.09,78.28,3.36
2012956,Yerbogachën,99,RU,1592166075,95,61.28,108.01,57.25,7.9
5983720,Iqaluit,90,CA,1592166349,75,63.75,-68.51,41.27,10.29
3393838,Nova Olinda do Norte,28,BR,1592166349,52,-3.89,-59.09,90.82,3.85
3374462,Mindelo,0,CV,1592166349,51,16.89,-24.98,82.67,26.4
2522325,Agüimes,75,ES,1592166349,73,27.91,-15.45,74.26,20.8
3424607,Tasiilaq,100,GL,1592166333,86,65.61,-37.64,37.67,44.96
2937959,Bone,100,DE,1592166350,90,51.97,12.14,69.28,5.08
3382160,Cayenne,52,GF,1592166338,70,4.93,-52.33,84.47,10.29
4036284,Alofi,75,NU,1592166233,83,-19.06,-169.92,71.87,13.87
5282297,Bethel,20,US,1592166350,42,41.37,-73.41,74.26,4.18
1337613,Kulhudhuffushi,84,MV,1592166350,78,6.62,73.07,84.85,18.34
1067565,Beloha,0,MG,1592166350,89,-25.17,45.05,58.86,6.35
5955902,Fort Nelson,90,CA,1592166350,93,58.81,-122.7,53.87,11.41
2171722,Charters Towers,22,AU,1592166351,94,-20.1,146.27,66.76,5.73
3714956,Ailigandí,79,PA,1592166351,69,9.23,-78.02,85.17,6.67
4167482,Palatka,20,US,1592166351,65,29.65,-81.64,85.26,12.75
2303611,Esim,98,GH,1592166351,89,4.87,-2.24,78.19,8.12
3939761,Hualmay,43,PE,1592166351,68,-11.1,-77.61,68.45,8.01
6201197,Muhafazat Lahij,78,YE,1592166351,41,13.17,44.58,91.63,0.83
582956,Alekseyevka,100,RU,1592166065,88,50.63,38.69,65.23,17.81
4013679,Coahuayana Viejo,40,MX,1592166352,62,18.73,-103.68,86.27,9.17
3354071,Oranjemund,37,NA,1592166352,51,-28.55,16.43,56.82,14.07
537147,Lakhdenpokh'ya,0,RU,1592166352,63,61.52,30.2,57.27,2.95
4920986,Griffith,1,US,1592166352,45,41.53,-87.42,68.27,8.9
5122534,Jamestown,1,US,1592166352,36,42.1,-79.24,68.27,8.05
2155415,New Norfolk,13,AU,1592166352,82,-42.78,147.06,54.27,1.99
3419842,Sisimiut,100,GL,1592166352,87,66.94,-53.67,34.41,8.43
5847411,Kahului,40,US,1592166353,54,20.89,-156.47,84.47,23.04
2025241,Churapcha,2,RU,1592166353,72,62,132.43,55.71,4.63
2094342,Kavieng,100,PG,1592166340,75,-2.57,150.8,82.65,4.99
3985710,Cabo San Lucas,5,MX,1592166353,35,22.89,-109.91,91.67,19.46
2332453,Lagos,75,NG,1592166334,88,6.58,3.75,80.87,4.7
2074865,Carnarvon,23,AU,1592166353,35,-24.87,113.63,64.38,19.35
2171099,Codrington,86,AU,1592166353,91,-38.27,141.97,53.92,14.38
5392171,San Jose,75,US,1592166256,53,37.34,-121.89,77.27,10.29
2063039,Port Keats,0,AU,1592166354,40,-14.25,129.55,70.86,7.38
2024626,Dzhebariki-Khaya,100,RU,1592166354,71,62.22,135.8,59.83,1.25
1582886,Kwang Binh,100,VN,1592166354,84,17.48,106.6,80.47,4.5
380348,Abū Zabad,59,SD,1592166354,40,12.35,29.25,83.75,14.05
3458721,Lauro Muller,0,BR,1592166354,71,-28.39,-49.4,52.12,2.35
1488414,Urengoy,94,RU,1592166354,66,65.97,78.37,44.19,25.55
3985168,San Patricio,20,MX,1592166355,74,19.22,-104.7,88.07,11.41
3674702,Miranda,75,CO,1592166355,65,3.25,-76.23,79.07,11.41
5688025,Bismarck,1,US,1592166350,45,46.81,-100.78,86.27,26.4
2537881,Safi,0,MA,1592166319,69,32.3,-9.24,70.81,16.26
118826,Rāmhormoz,0,IR,1592166355,12,31.28,49.6,87.73,5.46
211647,Lodja,30,CD,1592166059,57,-3.48,23.43,72.93,0.98
3397763,Jacareacanga,50,BR,1592166355,46,-6.22,-57.75,91.08,3.31
1688696,San Policarpo,69,PH,1592166355,82,12.18,125.51,80.46,0.58
1501000,Kyshtovka,0,RU,1592166355,90,56.55,76.63,42.42,8.1
2315026,Kasongo-Lunda,0,CD,1592166356,48,-6.47,16.82,73.31,0.58
1049261,Chimoio,40,MZ,1592166356,87,-19.12,33.48,60.28,1.57
1045114,Inhambane,20,MZ,1592166356,82,-23.86,35.38,64.67,4.63
57000,Hobyo,97,SO,1592166356,70,5.35,48.53,80.06,24.87
1275339,Mumbai,40,IN,1592166181,83,19.01,72.85,84.47,3.36
568608,Chernushka,0,RU,1592166356,82,56.51,56.08,46.96,3.09
2206939,Bluff,99,NZ,1592166357,83,-46.6,168.33,39.27,3.0
2037534,Dunhua,26,CN,1592166357,61,43.37,128.24,56.23,12.53
5859699,College,90,US,1592166357,82,64.86,-147.8,59.27,4.7
6355222,Yulara,4,AU,1592166357,65,-25.24,130.99,44.87,6.93
3356832,Henties Bay,0,NA,1592166357,49,-22.12,14.28,63.37,10.29
1855891,Nakamura,100,JP,1592166357,90,32.98,132.93,75.29,3.6
5354943,Half Moon Bay,40,US,1592166059,77,37.46,-122.43,76.26,13.87
3466165,Cidreira,8,BR,1592166357,72,-30.18,-50.21,53.64,5.77
4951594,Southbridge,100,US,1592166358,49,42.08,-72.03,70.27,5.95
2108857,Gizo Government Station,56,SB,1592166358,78,-8.1,156.84,82.94,10.13
2123814,Leningradskiy,88,RU,1592166358,82,69.38,178.42,46.04,6.64
3883457,Lebu,65,CL,1592166132,62,-37.62,-73.65,53.67,4.45
2126123,Chokurdakh,100,RU,1592166131,46,70.63,147.92,69.46,9.55
1299154,Prome,84,MM,1592166358,82,18.82,95.22,80.24,3.15
1015776,Bredasdorp,98,ZA,1592166358,93,-34.53,20.04,55.67,4.27
1507390,Dikson,3,RU,1592166358,95,73.51,80.55,31.84,16.2
1106643,Quatre Cocos,20,MU,1592166359,83,-20.21,57.76,71.87,8.05
504269,Pudozh,0,RU,1592166359,68,61.81,36.53,55.13,3.53
212902,Kindu,100,CD,1592166359,63,-2.95,25.95,73.69,0.58
3430443,Necochea,0,AR,1592166359,66,-38.55,-58.74,49.26,5.99
5357155,Hillsborough,40,US,1592166169,56,37.57,-122.38,76.26,17.22
281133,Gaza,0,PS,1592166360,78,31.5,34.47,75.27,8.01
1489853,Tazovsky,100,RU,1592166360,73,67.47,78.7,42.24,25.93
6167817,Torbay,90,CA,1592166360,100,47.67,-52.73,46.27,11.41
3513563,Kralendijk,27,BQ,1592166360,66,12.15,-68.27,86.27,21.92
5924351,Clyde River,1,CA,1592166360,86,70.47,-68.59,37.67,32.21
1805515,Jinji,97,CN,1592166360,93,23.23,110.83,75.81,2.66
2208248,Kaitangata,99,NZ,1592166360,66,-46.28,169.85,43.27,1.99
2632287,Dalvik,53,IS,1592166361,54,65.97,-18.53,59.27,13.87
3456368,Naviraí,51,BR,1592166361,81,-23.07,-54.19,72.14,1.72
1028434,Quelimane,20,MZ,1592166361,93,-17.88,36.89,66.27,5.82
3405006,Bragança,91,BR,1592166361,94,-1.05,-46.77,80.13,2.73
53372,Oodweyne,89,SO,1592166361,63,9.41,45.06,74.95,13.98
128234,Kerman,0,IR,1592166361,19,30.28,57.08,71.87,4.7
1802276,Longyan,32,CN,1592166362,88,25.11,117.02,73.04,1.77
2017155,Saskylakh,44,RU,1592166362,63,71.92,114.08,47.3,8.3
2034497,Guangming,99,CN,1592166362,62,45.33,122.78,61.12,14.36
3386213,Touros,20,BR,1592166362,78,-5.2,-35.46,80.87,3.36
172515,Abu Samrah,57,SY,1592166362,44,35.3,37.18,69.67,9.17
487928,Novikovo,98,RU,1592166362,88,51.15,37.89,65.89,18.59
2126199,Cherskiy,50,RU,1592166362,45,68.75,161.3,65.08,2.04
5866583,Saint Paul Harbor,75,US,1592166363,76,57.79,-152.41,53.87,5.82
6067472,Marystown,100,CA,1592166363,93,47.17,-55.15,56.91,4.68
2136825,Isangel,4,VU,1592166363,78,-19.55,169.27,73.33,17.2
1037125,Montepuez,41,MZ,1592166363,80,-13.13,39,63.93,8.99
5601615,Mountain Home,75,US,1592166246,34,43.13,-115.69,66.47,5.82
2160735,Lakes Entrance,85,AU,1592166363,71,-37.88,147.98,55.27,9.51
5882953,Aklavik,20,CA,1592166363,25,68.22,-135.01,77.27,8.05
3564124,Cienfuegos,100,CU,1592166364,74,22.15,-80.44,86.27,12.75
2655984,Belfast,26,GB,1592166364,72,54.58,-5.93,68.27,8.05
4035715,Avarua,75,CK,1592166131,50,-21.21,-159.78,75.47,9.17
1213855,Sibolga,5,ID,1592166364,82,1.74,98.78,78.44,3.18
8079926,Labuhan,85,ID,1592166364,85,-6.88,112.21,79.25,7.83
6148373,Sioux Lookout,75,CA,1592166365,33,50.1,-91.92,71.87,13.87
2125693,Evensk,7,RU,1592166365,62,61.95,159.23,56.35,2.57
1722803,Buluang,100,PH,1592166365,89,13.31,123.34,77.32,2.46
1257277,Sarāhan,0,IN,1592166365,42,31.52,77.8,59.49,5.12
2653590,Castle Douglas,100,GB,1592166365,81,54.94,-3.93,65.26,8.63
3131824,Vigrestad,41,NO,1592166365,63,58.57,5.7,64.67,5.82
2031964,Darhan,0,MN,1592166366,43,49.49,105.92,62.38,5.64
933995,Souillac,20,MU,1592166366,83,-20.52,57.52,71.87,8.05
2342490,Funtua,91,NG,1592166366,68,11.52,7.31,81.05,12.88
1735076,Butterworth,20,MY,1592166366,88,5.4,100.36,82.27,2.24
3372964,Lagoa,4,PT,1592166135,73,39.05,-27.98,62.65,11.86
4576653,Dillon,90,US,1592166082,69,34.42,-79.37,75.27,13.87
934322,Mahébourg,20,MU,1592166366,83,-20.41,57.7,71.87,8.05
1503726,Kharp,100,RU,1592166366,73,66.8,65.81,41.2,7.72
2020838,Lensk,0,RU,1592166366,91,60.73,114.93,50.86,3.09
2456917,Goundam,12,ML,1592166367,12,16.41,-3.67,104.92,2.71
556268,Ostrovnoy,99,RU,1592166367,57,68.05,39.51,59.49,11.72
1855540,Naze,20,JP,1592166355,100,28.37,129.48,79.07,10.29
1255925,Siwāna,71,IN,1592166367,43,25.63,72.42,94.86,17.98
2729907,Longyearbyen,75,SJ,1592166367,93,78.22,15.64,35.87,12.75
3837213,San Juan,0,AR,1592166367,29,-31.54,-68.54,62.46,5.3
3577430,Road Town,40,VG,1592166191,62,18.42,-64.62,88.07,9.17
5746545,Portland,75,US,1592166155,55,45.52,-122.68,66.27,8.05
538685,Kurmanayevka,0,RU,1592166368,83,52.51,52.07,50.88,7.78
1788852,Xining,100,CN,1592166368,69,36.62,101.77,58.98,1.32
1106677,Bambous Virieux,20,MU,1592166344,83,-20.34,57.76,71.87,8.05
2611755,Thisted,0,DK,1592166368,78,56.96,8.69,62.28,6.82
2023333,Kachug,0,RU,1592166368,73,53.96,105.88,54.32,1.1
5563839,Fortuna,20,US,1592166368,63,40.6,-124.16,72.27,16.11
3430863,Mar del Plata,0,AR,1592166369,46,-38,-57.56,54.27,9.17
3495137,Pedernales,40,DO,1592166369,66,18.04,-71.74,89.87,13.87
1265821,Kuchera,94,IN,1592166369,18,26.98,73.97,93.24,1.25
2112309,Katsuura,75,JP,1592166369,83,35.13,140.3,77.27,20.8
1513491,Yangi Marg`ilon,100,UZ,1592166369,31,40.43,71.72,77.27,4.7
4172383,Sebring,90,US,1592166369,66,27.5,-81.44,90.27,12.75
3448903,São João da Barra,40,BR,1592166369,83,-21.64,-41.05,75.47,18.34
2460489,Bandiagara,41,ML,1592166370,17,14.35,-3.61,103.12,7.58
1490256,Talnakh,99,RU,1592166370,76,69.49,88.4,48.47,11.18
6149996,Smithers,75,CA,1592166370,54,54.78,-127.17,57.47,2.24
780687,Berlevåg,68,NO,1592166359,76,70.86,29.09,50.27,6.93
4031637,Lavrentiya,94,RU,1592166370,66,65.58,-171,49.33,4.07
1506268,Gornopravdinsk,27,RU,1592166370,80,60.05,69.9,43.25,4.38
5367788,Lompoc,0,US,1592166088,68,34.64,-120.46,70.27,19.46
5142056,Utica,90,US,1592166370,48,43.1,-75.23,62.87,6.93
517958,Novosheshminsk,0,RU,1592166371,83,55.07,51.23,50.07,2.53
3661944,Tefé,40,BR,1592166371,74,-3.35,-64.71,86.27,3.36
2541479,Nador,0,MA,1592166295,53,35.17,-2.93,71.87,17.22
1735106,George Town,20,MY,1592166371,88,5.41,100.34,82.27,2.24
1819729,Hong Kong,55,HK,1592166331,88,22.29,114.16,81.27,8.99
5377995,Norwalk,1,US,1592166156,47,33.9,-118.08,83.26,9.17
2070998,Geraldton,3,AU,1592166372,93,-28.77,114.6,52.07,9.17
3894426,Coyhaique,20,CL,1592166372,75,-45.58,-72.07,46.67,2.24
6164499,The Pas,1,CA,1592166372,53,53.83,-101.25,75.47,25.28
2180815,Tuatapere,100,NZ,1592166319,83,-46.13,167.68,39.27,3.0
1253237,Verāval,99,IN,1592166372,73,20.9,70.37,86.07,4.97
6944110,Les Escoumins,0,CA,1592166372,46,48.11,-69.02,56.07,8.5
6144312,Sept-Îles,20,CA,1592166113,37,50.2,-66.38,56.26,12.75
3420768,Qasigiannguit,95,GL,1592166373,74,68.82,-51.19,35.87,9.17
3465729,Conchas,11,BR,1592166373,71,-23.02,-48.01,66.92,13.91
286245,Sur,100,OM,1592166373,61,22.57,59.53,86.99,12.73
2094027,Kieta,40,PG,1592166373,74,-6.22,155.63,80.1,4.21
6322927,Pontal do Paraná,90,BR,1592166373,87,-25.65,-48.51,55.27,9.17
100926,Umluj,0,SA,1592166373,49,25.02,37.27,86.27,6.08
321082,Bingöl,43,TR,1592166374,76,38.88,40.49,55.67,5.82
371745,Kutum,12,SD,1592166374,15,14.2,24.67,82.33,7.76
2036933,Helong,19,CN,1592166374,70,42.54,129,55.78,13.09
6690296,Saint-Joseph,53,RE,1592166374,56,-21.37,55.62,73.67,14.99
3456500,Muriaé,0,BR,1592166374,73,-21.13,-42.37,74.5,5.32
304355,Milas,0,TR,1592166375,68,37.32,27.78,70.07,3.36
2171320,Clifton Springs,90,AU,1592166375,100,-38.15,144.57,55.67,12.75
777572,Sørkjosen,100,NO,1592166375,85,69.8,20.93,49.21,4.14
86049,Jalu,0,LY,1592166375,18,29.03,21.55,85.01,4.05
3184136,Shëngjin,40,AL,1592166375,72,41.81,19.59,68.27,1.12
2174444,Bowen,90,AU,1592166366,100,-20.02,148.23,71.28,5.82
1855095,Nobeoka,100,JP,1592166375,91,32.58,131.67,71.28,4.72
7671223,Kloulklubed,90,PW,1592166376,94,7.04,134.26,75.47,11.81
502011,Revda,0,RU,1592166376,76,56.8,59.93,48.47,4.47
2477537,Tazmalt,0,DZ,1592166376,77,36.39,4.4,64.67,4.7
3146487,Raudeberg,40,NO,1592166376,82,61.99,5.14,64.67,5.82
3668605,Santa Marta,40,CO,1592166376,63,11.24,-74.2,93.47,9.17
5554428,Ketchikan,75,US,1592166376,66,55.34,-131.65,55.67,16.11
2239862,Malanje,0,AO,1592166377,47,-9.54,16.34,64.22,2.77
3404558,Cabedelo,75,BR,1592166232,78,-6.98,-34.83,80.87,11.41
4033557,Tautira,20,PF,1592166377,66,-17.73,-149.15,84.47,4.7
3691954,Sechura,10,PE,1592166377,55,-5.56,-80.82,76.14,13.73
1282256,Hithadhoo,60,MV,1592166377,74,-0.6,73.08,84.04,11.52
2126710,Beringovskiy,84,RU,1592166377,90,63.05,179.32,40.78,8.66
2618795,Klaksvík,37,FO,1592166346,87,62.23,-6.59,50.27,10.29
215605,Kabare,99,CD,1592166378,85,-2.47,28.82,61.2,1.34
338345,Edd,100,ER,1592166378,63,13.93,41.69,89.46,5.19
1805733,Jinchang,99,CN,1592166378,37,38.5,102.17,71.24,6.44
542464,Krasnoarmeysk,47,RU,1592166378,74,51.02,45.7,56.57,15.08
3449304,São Desidério,0,BR,1592166378,46,-12.36,-44.97,81.14,4.68
1650064,Barabai,24,ID,1592166378,92,-2.58,115.38,74.1,1.3
1283161,Lahān,100,NP,1592166378,74,26.73,86.5,83.7,7.81
3466395,Cerro Largo,0,BR,1592166379,51,-28.15,-54.74,62.28,8.05
2367990,Aného,40,TG,1592166379,83,6.23,1.6,80.87,11.41
1623197,Tual,99,ID,1592166363,84,-5.67,132.75,81.55,16.96
3372760,Praia da Vitória,20,PT,1592166379,63,38.73,-27.07,66.47,11.41
3932145,Pisco,90,PE,1592166348,82,-13.7,-76.22,66.47,6.93
506762,Zasheyek,72,RU,1592166379,51,67.41,32.55,64.04,10.36
1259385,Port Blair,100,IN,1592166252,82,11.67,92.75,83.21,13.29
4047434,Russell,40,US,1592166380,33,32.35,-85.2,89.87,4.7
3176311,Gardone Val Trompia,100,IT,1592166380,78,45.69,10.19,69.28,2.04
2980080,Saint-François,6,FR,1592166380,67,46.42,3.91,62.87,5.82
496358,Severnyy,75,RU,1592166380,73,50.68,36.55,70.07,8.95
6050066,La Ronge,75,CA,1592166380,60,55.1,-105.28,70.07,13.87
2120400,Tungor,100,RU,1592166380,96,53.38,142.96,38.62,9.19
935214,Saint-Pierre,11,RE,1592166380,56,-21.34,55.48,73.67,14.99
528242,Mayskiy,40,RU,1592166381,77,47.69,40.1,68.27,6.71
2063056,Port Augusta,0,AU,1592166381,81,-32.5,137.77,46.67,6.93
2038665,Alihe,0,CN,1592166381,91,50.57,123.72,47.59,4.18
6451497,Hyères,14,FR,1592166381,68,43.12,6.12,72.27,12.75
3384937,Miracema do Tocantins,0,BR,1592166381,34,-9.56,-48.4,90.27,3.51
1726449,Basco,0,PH,1592166381,80,20.45,121.97,84.52,10.98
2032614,Baruun-Urt,72,MN,1592166381,51,46.68,113.28,61.84,1.54
2450173,Taoudenni,0,ML,1592166382,11,22.68,-3.98,105.46,11.16
1687894,Santa Rosa,20,PH,1592166382,83,14.31,121.11,82.67,2.24
5861897,Fairbanks,90,US,1592166382,82,64.84,-147.72,59.27,5.82
2015306,Tiksi,100,RU,1592166245,93,71.69,128.87,35.49,2.59
6165406,Thompson,75,CA,1592166382,47,55.74,-97.86,75.47,8.05
5850554,Makakilo City,40,US,1592166382,58,21.35,-158.09,82.67,8.05
2012530,Zhigansk,57,RU,1592166382,78,66.77,123.37,48.76,11.81
3175096,Laas,75,IT,1592166383,76,46.62,10.7,52.07,5.82
2835477,Schwabmünchen,100,DE,1592166383,87,48.18,10.75,56.26,11.41
2013279,Vostok,97,RU,1592166383,100,46.49,135.88,50.18,3.44
3359638,Walvis Bay,0,NA,1592166383,19,-22.96,14.51,70.07,16.11
1529651,Altay,36,CN,1592166383,51,47.87,88.12,57.9,2.64
5520076,Del Rio,1,US,1592166262,23,29.36,-100.9,93.47,9.17
5011428,Sturgis,1,US,1592166137,32,41.8,-85.42,70.07,4.7
3421719,Narsaq,46,GL,1592166383,67,60.92,-46.05,46.67,23.04
1498283,Mugur-Aksy,38,RU,1592166384,56,50.35,90.5,51.04,3.22
5335650,Ceres,1,US,1592166384,36,37.59,-120.96,79.07,11.41
2179103,Whitianga,0,NZ,1592166384,96,-36.83,175.7,52.27,1.23
2037485,Erenhot,0,CN,1592166384,27,43.65,111.98,66.29,4.0
2315728,Gemena,26,CD,1592166384,86,3.25,19.77,74.08,0.87
2344245,Dutse,99,NG,1592166384,31,11.76,9.34,93.88,4.29
1349090,Harindānga,75,IN,1592166384,94,22.04,88.32,82.67,5.82
1242110,Kalmunai,100,LK,1592166385,78,7.42,81.82,83.19,1.54
899825,Petauke,14,ZM,1592166385,79,-14.24,31.33,56.89,12.55
1488429,Uray,13,RU,1592166385,71,60.12,64.78,50.99,4.85
2396518,Port-Gentil,75,GA,1592166385,94,-0.72,8.78,75.47,9.17
1519924,Kushmurun,0,KZ,1592166385,60,52.45,64.63,51.91,8.97
1501377,Kungurtug,0,RU,1592166123,57,50.6,97.52,52.07,2.48
2027296,Aykhal,94,RU,1592166343,75,66,111.5,46.67,6.71
2990474,Nevers,0,FR,1592166386,77,46.99,3.16,60.28,4.07
4870239,Oskaloosa,75,US,1592166386,42,41.3,-92.64,82.67,18.34
1254709,Tezu,56,IN,1592166386,81,27.92,96.17,76.84,3.6
3004775,Le Chambon-Feugerolles,20,FR,1592166386,77,45.4,4.33,59.27,2.24
3114567,Palafrugell,53,ES,1592166386,51,41.92,3.16,66.27,6.55
986717,Kruisfontein,6,ZA,1592166386,44,-34,24.73,52.34,6.15
5397664,South Lake Tahoe,1,US,1592166182,38,38.93,-119.98,61.07,5.82
1266510,Kiraoli,1,IN,1592166387,36,27.15,77.78,96.44,6.26
215771,Isiro,84,CD,1592166387,92,2.77,27.62,67.71,1.83
4833425,East Haven,1,US,1592166387,40,41.28,-72.87,75.27,9.17
2071860,Esperance,1,AU,1592166387,87,-33.87,121.9,52.07,11.41
3662155,Sena Madureira,60,BR,1592166387,70,-9.07,-68.66,81.79,6.69
2669047,Timrå,0,SE,1592166387,52,62.49,17.33,68.27,4.7
4231997,Avera,1,US,1592166387,35,33.19,-82.53,86.27,12.75
3414079,Olafsvik,100,IS,1592166388,93,64.89,-23.71,48.6,24.52
6137462,Saint-Augustin,0,CA,1592166388,45,51.23,-58.65,56.8,13.31
4021858,Guerrero Negro,0,MX,1592166388,49,27.98,-114.06,74.68,19.15
3374083,Bathsheba,40,BB,1592166232,66,13.22,-59.52,86.27,20.8
934517,Flic en Flac,20,MU,1592166388,83,-20.27,57.36,71.87,8.05
5962442,Goderich,61,CA,1592166388,73,43.75,-81.72,60.28,11.52
5039173,New Ulm,1,US,1592166388,34,44.31,-94.46,82.67,24.16
2156643,Mount Gambier,75,AU,1592166388,93,-37.83,140.77,53.87,11.41
3408368,Acaraú,24,BR,1592166389,79,-2.89,-40.12,81.41,10.98
3761194,Miraflores,20,MX,1592166389,14,19.22,-98.81,77.27,9.17
2191562,Dunedin,26,NZ,1592166186,66,-45.87,170.5,44.28,3.0
286621,Salalah,75,OM,1592166389,89,17.02,54.09,86.27,4.7
174984,Areni,40,AM,1592166389,37,39.72,45.18,66.47,4.7
1283285,Jumla,85,NP,1592166389,68,29.27,82.18,59.27,3.11
2034400,Tongliao,0,CN,1592166389,47,43.61,122.27,65.05,10.83
229292,Mayuge,1,UG,1592166390,88,0.46,33.48,64.49,1.95
60019,Eyl,100,SO,1592166390,62,7.98,49.82,82.44,26.51
1528998,Yumen,99,CN,1592166345,23,40.28,97.2,71.64,6.64
1012600,Cradock,0,ZA,1592166390,47,-32.16,25.62,44.31,5.59
1261369,Nīmbāhera,74,IN,1592166390,51,24.62,74.68,89.01,7.9
2181625,Te Anau,100,NZ,1592166390,79,-45.42,167.72,46.71,7.4
1268059,Kanigiri,100,IN,1592166390,61,15.4,79.52,86.05,13.06
3698105,Chulucanas,1,PE,1592166391,36,-5.09,-80.16,88.23,9.57
3670513,Sabanagrande,20,CO,1592166391,70,10.79,-74.76,89.87,11.41
2374583,Bubaque,18,GW,1592166391,78,11.28,-15.83,81.72,8.19
2629833,Husavik,95,IS,1592166391,54,66.04,-17.34,59.27,13.87
6171633,Ucluelet,20,CA,1592166391,72,48.93,-125.55,60.28,9.17
2028462,Ulaanbaatar,0,MN,1592166391,56,47.91,106.88,43.07,4.47
3629710,Puerto Ayacucho,40,VE,1592166391,70,5.66,-67.62,84.47,6.93
2035836,Manzhouli,4,CN,1592166392,57,49.6,117.43,52.61,2.44
4392354,Jasper,20,US,1592166392,36,37.2,-94.35,91.67,5.82
1056899,Sambava,35,MG,1592166392,74,-14.27,50.17,70.92,13.22
2522430,Adra,0,ES,1592166392,72,36.75,-3.02,66.47,5.82
1495586,Parabel',94,RU,1592166392,81,58.7,81.48,47.16,11.86
2030065,Mandalgovi,40,MN,1592166392,27,45.76,106.27,64.94,7.85
4529292,Altus,1,US,1592166392,21,34.64,-99.33,93.47,13.87
3372472,Vila Franca do Campo,20,PT,1592166392,77,37.72,-25.43,61.07,4.7
2415702,Siguiri,23,GN,1592166393,46,11.67,-9.5,87.93,4.94
3598787,Champerico,75,GT,1592166393,59,14.3,-91.92,91.67,9.17
300075,Suruç,99,TR,1592166393,28,36.98,38.42,70.07,8.05
2377457,Nouadhibou,2,MR,1592166318,22,20.93,-17.03,100.67,23.04
2455290,Kidal,25,ML,1592166393,8,18.44,1.41,101.73,10.42
3855065,General Roca,0,AR,1592166393,40,-39.03,-67.58,53.87,1.12
6145890,Shelburne,20,CA,1592166393,32,44.08,-80.2,68.27,13.87
6316343,Alta Floresta,20,BR,1592166393,28,-9.88,-56.09,95.27,10.29
1490624,Surgut,40,RU,1592166394,87,61.25,73.42,46.67,11.18
3893726,Constitución,0,CL,1592166394,51,-35.33,-72.42,57.88,1.54
1640902,Kawalu,64,ID,1592166394,92,-7.38,108.21,74.3,0.65
2524371,Locri,71,IT,1592166394,86,38.24,16.26,72.27,17.0
1529484,Kumul,82,CN,1592166394,17,42.8,93.45,78.94,3.29
2185763,Okato,97,NZ,1592166394,93,-39.2,173.88,58.26,5.99
3457708,Maricá,75,BR,1592166319,78,-22.92,-42.82,73.67,16.11
696643,Poltava,1,UA,1592166394,83,49.59,34.54,67.51,2.53
1487332,Verkhnyaya Inta,20,RU,1592166395,84,65.98,60.31,42.48,4.59
3445026,Vila Velha,20,BR,1592166395,78,-20.33,-40.29,79.27,4.7
1024312,Mocuba,0,MZ,1592166395,97,-16.84,36.99,60.4,3.31
6620339,Karratha,2,AU,1592166395,42,-20.74,116.85,70.86,13.44
1791779,Wanning,100,CN,1592166395,87,18.8,110.4,81.99,16.37
2021116,Kutulik,55,RU,1592166395,76,53.35,102.78,58.91,5.48
4916311,Wheeling,1,US,1592166395,32,42.14,-87.93,68.27,10.29
3381041,Mana,56,GF,1592166396,83,5.66,-53.78,82.17,5.79
2128975,Nemuro,100,JP,1592166396,94,43.32,145.57,55.22,7.72
3393008,Parintins,54,BR,1592166171,60,-2.63,-56.74,89.31,1.48
713743,Yakymivka,27,UA,1592166396,87,46.69,35.15,66.47,7.96
1214488,Meulaboh,100,ID,1592166396,89,4.14,96.13,77.65,4.07
3347019,Mossamedes,0,AO,1592166396,65,-15.2,12.15,71.02,1.5
1282898,Pokhara,11,NP,1592166396,74,28.23,83.98,72.09,0.98
2090021,Namatanai,44,PG,1592166396,83,-3.67,152.43,80.11,4.99
1835848,Seoul,24,KR,1592166132,93,37.57,126.98,64.67,5.82
499068,Chapaevsk,0,RU,1592166397,66,52.98,49.71,53.87,4.47
6126749,Rocky Mountain House,84,CA,1592166397,62,52.37,-114.92,62.92,5.06
3988392,Rosarito,5,MX,1592166397,36,32.33,-117.03,77.27,5.82
2643044,Margate,100,GB,1592166397,74,51.38,1.39,64.27,1.99
214389,Kaniama,0,CD,1592166398,41,-7.57,24.18,65.71,4.23
2158767,Mareeba,40,AU,1592166398,88,-17,145.43,75.47,5.82
368246,Raja,100,SS,1592166398,95,8.46,25.68,71.8,2.13
3374210,São Filipe,0,CV,1592166398,75,14.9,-24.5,78.04,11.1
3664980,Boa Vista,40,BR,1592166398,55,2.82,-60.67,88.07,3.36
964712,Plettenberg Bay,18,ZA,1592166398,39,-34.05,23.37,57.56,6.58
2640106,Pontypool,20,GB,1592166398,73,51.7,-3.04,63.27,1.01
1260206,Pāsighāt,94,IN,1592166398,82,28.07,95.33,77.7,2.84
2270385,Camacha,20,PT,1592166399,73,33.08,-16.33,71.87,3.36
2077895,Alice Springs,90,AU,1592166326,75,-23.7,133.88,52.27,3.36
2294727,Techiman,26,GH,1592166399,90,7.59,-1.94,75.2,5.68
53654,Mogadishu,98,SO,1592166399,79,2.04,45.34,79.36,17.45
2294915,Takoradze,85,GH,1592166399,90,4.88,-1.76,78.1,8.75
3440777,Rocha,0,UY,1592166146,62,-34.48,-54.33,48.47,2.59
3907685,Poopó,1,BO,1592166399,39,-18.37,-66.97,56.62,12.3
2173125,Burnie,98,AU,1592166399,83,-41.07,145.92,55.27,8.99
777019,Vardø,100,NO,1592166400,87,70.37,31.11,48.47,3.36
232834,Kagadi,72,UG,1592166400,99,0.96,30.8,62.82,2.75
1496511,Novy Urengoy,71,RU,1592166245,71,66.08,76.63,40.6,23.51
3386177,Trairi,48,BR,1592166308,76,-3.28,-39.27,80.33,10.09
466658,Yukhnov,100,RU,1592166400,78,54.74,35.23,61.86,11.56
3397108,Jucurutu,39,BR,1592166400,65,-6.03,-37.02,83.77,11.3
472234,Volzhsk,0,RU,1592166400,66,55.87,48.36,57.47,4.47
1485849,Yetkul',2,RU,1592166400,70,54.82,61.59,48.47,8.95
1692901,Poro,90,PH,1592166401,83,10.63,124.41,80.87,5.82
2017658,Preobrazheniye,28,RU,1592166401,91,42.9,133.91,54.73,3.02
1712961,Gigmoto,96,PH,1592166401,81,13.78,124.39,80.94,2.93
2123100,Myaundzha,81,RU,1592166401,53,63.05,147.19,58.75,4.81
2702261,Kalmar,0,SE,1592166401,67,56.66,16.36,60.28,3.36
2152286,Queanbeyan,100,AU,1592166219,87,-35.35,149.23,44.87,13.87
3585480,Intipucá,20,SV,1592166402,59,13.2,-88.05,91.67,2.24
1337612,Dhidhdhoo,63,MV,1592166402,78,6.88,73.1,84.92,17.45
304183,Bayir,0,TR,1592166402,68,37.27,28.22,70.07,3.36
2015701,Taksimo,94,RU,1592166402,87,56.34,114.88,48.81,0.83
3470871,Barão de Melgaço,42,BR,1592166402,58,-16.19,-55.97,84.47,4.25
5779548,Payson,40,US,1592166106,23,40.04,-111.73,73.67,3.36
1786855,Yatou,90,CN,1592166402,48,37.15,122.38,67.14,6.51
1509852,Bogotol,16,RU,1592166403,93,56.21,89.53,45.1,5.73
921786,Mitsamiouli,0,KM,1592166403,68,-11.38,43.28,77.99,10.0
3591093,Tiquisate,75,GT,1592166403,59,14.28,-91.37,91.67,9.17
2173911,Broken Hill,0,AU,1592166246,66,-31.95,141.43,50.27,11.41
2214432,Nālūt,0,LY,1592166403,47,30.33,10.85,77.29,21.16
933734,Gweta,0,BW,1592166404,45,-20.18,25.23,61.36,7.87
1861084,Izumo,75,JP,1592166404,94,35.37,132.77,73.67,18.34
1174167,Khanpur,0,PK,1592166404,9,28.65,70.66,103.03,8.43
1492566,Severo-Yeniseyskiy,0,RU,1592166404,78,60.37,93.04,40.08,8.32
1568770,Quang Ngai,100,VN,1592166404,87,15.12,108.8,78.3,6.17
2400547,Gamba,99,GA,1592166404,87,-2.65,10,74.7,7.49
3421319,Nuuk,99,GL,1592166404,93,64.18,-51.72,35.87,9.17
1121143,Zabul Province,0,AF,1592166364,20,32.25,67.25,69.6,4.81
3395981,Maceió,40,BR,1592166348,78,-9.67,-35.74,79.07,5.82
1648082,Boyolangu,30,ID,1592166405,90,-8.12,111.89,76.06,1.32
3374120,Vila do Maio,0,CV,1592166405,58,15.13,-23.22,82.67,14.99
3471691,Araxá,0,BR,1592166205,47,-19.59,-46.94,75.47,6.93
935221,Saint-Paul,29,RE,1592166405,53,-21.01,55.27,73.67,13.87
3391889,Pitimbu,75,BR,1592166210,78,-7.47,-34.81,80.87,11.41
3628473,San Cristobal,40,VE,1592166321,41,7.77,-72.22,91.67,18.34
1180419,Daud Khel,0,PK,1592166405,18,32.88,71.57,96.49,2.86
1152633,Krabi,40,TH,1592166406,100,8.07,98.91,79.27,1.12
2145554,Ulladulla,0,AU,1592166406,62,-35.35,150.47,55.27,18.34
2514651,Los Llanos de Aridane,40,ES,1592166406,73,28.66,-17.92,73.67,3.36
2249281,Linguère,19,SN,1592166406,17,15.4,-15.12,103.98,7.92
4928096,West Lafayette,1,US,1592166119,27,40.43,-86.91,79.07,10.29
4588165,Mt. Pleasant,90,US,1592166406,100,32.79,-79.86,75.27,6.93
3468020,Camapuã,17,BR,1592166407,43,-19.53,-54.04,83.64,5.95
2176639,Batemans Bay,0,AU,1592166371,90,-35.72,150.18,47.26,5.01
778707,Mehamn,75,NO,1592166407,71,71.04,27.85,50.27,19.46
3579925,St. George's,20,GD,1592166407,70,12.06,-61.75,86.27,16.11
1863495,Gushikawa,20,JP,1592166407,94,26.35,127.87,80.87,10.29
2047258,Novyy Urgal,100,RU,1592166407,80,51.07,132.56,46.13,3.71
5969025,Haines Junction,100,CA,1592166339,54,60.75,-137.51,60.87,4.21
5713587,Bend,40,US,1592166113,34,44.06,-121.32,61.07,12.75
2845924,Roding,100,DE,1592166408,87,49.2,12.52,61.27,7.11
2162683,Innisfail,91,AU,1592166408,93,-17.53,146.03,73.08,5.41
1803365,Linqiong,20,CN,1592166408,78,30.42,103.46,80.87,4.47
6942803,Caraquet,75,CA,1592166408,48,47.79,-64.94,61.07,8.05
2138285,Tadine,17,NC,1592166408,78,-21.55,167.88,71.73,14.54
3899539,Antofagasta,20,CL,1592166408,77,-23.65,-70.4,61.07,13.87
2127060,Arman',0,RU,1592166408,62,59.7,150.17,53.42,1.97
2334652,Keffi,20,NG,1592166409,83,8.85,7.87,80.87,4.7
1637001,Biak,92,ID,1592166409,79,-0.91,122.88,77.76,6.85
6089179,Normandin,20,CA,1592166409,36,48.83,-72.53,61.07,6.93
1633034,Palu,83,ID,1592166409,81,-0.89,119.87,75.2,2.62
219414,Basoko,29,CD,1592166409,78,1.24,23.62,75.25,1.83
5820705,Casper,1,US,1592166216,13,42.87,-106.31,81.27,36.91
3836620,Orán,98,AR,1592166410,29,-23.13,-64.33,70.3,5.84
1213500,Tebingtinggi,40,ID,1592166410,100,3.33,99.16,77.27,6.93
2112444,Kamaishi,78,JP,1592166410,91,39.27,141.88,66.22,7.23
779683,Hammerfest,75,NO,1592166291,87,70.66,23.68,46.67,23.04
3424901,Aasiaat,100,GL,1592166410,90,68.71,-52.87,34.25,11.1
5067114,Douglas,1,US,1592166410,34,41.3,-96.17,93.47,20.8
6542092,Anzio,0,IT,1592166410,85,41.49,12.62,68.27,8.08
4946620,Palmer,75,US,1592166350,35,42.16,-72.33,73.67,6.93
1852357,Shimoda,100,JP,1592166411,82,34.67,138.95,73.27,1.99
1488200,Ust'-Kalmanka,97,RU,1592166411,81,52.12,83.31,56.68,5.12
2264923,Peniche,68,PT,1592166242,79,39.36,-9.38,65.26,1.01
1731298,Aloleng,95,PH,1592166411,79,16.13,119.78,81.54,10.65
2284589,Mankono,28,CI,1592166411,77,8.06,-6.19,78.35,3.69
3897347,Calama,20,CL,1592166411,13,-22.47,-68.93,71.87,18.34
1485712,Yurginskoye,0,RU,1592166411,75,56.82,67.39,44.24,7.02
1295765,Sittwe,87,MM,1592166411,84,20.15,92.9,83.34,6.42
3461124,Ipirá,0,BR,1592166412,65,-12.16,-39.74,74.91,13.09
2445488,Dosso,66,NE,1592166412,26,13.05,3.19,99.79,8.86
5394329,Selma,0,US,1592166412,33,36.57,-119.61,79.27,8.48
2068655,Katherine,0,AU,1592166412,72,-14.47,132.27,66.47,4.7
2108502,Honiara,75,SB,1592166409,94,-9.43,159.95,77.27,10.29
123941,Mīnāb,0,IR,1592166412,70,27.15,57.08,89.87,4.7
3839307,Rawson,76,AR,1592166346,40,-43.3,-65.1,55.65,6.49
2109701,Auki,14,SB,1592166413,82,-8.77,160.7,79.16,5.26
3674676,Mitú,74,CO,1592166413,80,1.2,-70.17,82.99,2.19
3654410,Manta,90,EC,1592166413,78,-0.95,-80.73,77.27,11.41
1177446,Gwadar,0,PK,1592166413,87,25.12,62.33,84.34,6.24
2630299,Hofn,0,IS,1592166413,78,64.25,-15.21,51.08,11.59
4035249,Lufilufi,75,WS,1592166413,88,-13.87,-171.6,79.07,9.17
2336237,Jega,100,NG,1592166413,59,12.22,4.38,81.34,17.27
547927,Kiyasovo,0,RU,1592166413,86,56.35,53.12,49.26,4.27
174448,Abu Kamal,31,SY,1592166414,32,34.45,40.92,81.57,7.16
1486321,Yar-Sale,55,RU,1592166414,75,66.83,70.83,37.94,18.66
3899695,Ancud,90,CL,1592166414,100,-41.87,-73.82,51.28,3.36
1253392,Varkala,75,IN,1592166414,83,8.73,76.71,82.67,2.24
2373526,Catió,100,GW,1592166414,78,11.28,-15.25,81.79,7.87
2120048,Ust-Nera,100,RU,1592166415,44,64.57,143.2,64.24,2.64
1218420,Seydi,0,TM,1592166415,11,39.48,62.91,90.68,8.75
1847947,Shingū,100,JP,1592166415,91,33.73,135.98,75.13,5.41
