City_ID,City_Name,Cloudiness (%),Country,Date,Humidity (%),Latitude,Longitude,Temperature (F),Wind Speed (mph)
6201424,Mataura,0,NZ,1592143988,84,-46.19,168.86,276.48,1.34
5106841,Albany,83,US,1592143989,61,42.6,-73.97,287.59,0.89
2654970,Brae,98,GB,1592143989,93,60.4,-1.35,288.15,3.6
3347019,Mossamedes,0,AO,1592143989,69,-15.2,12.15,298.15,6.7
4068590,Huntsville,1,US,1592143990,64,34.73,-86.59,299.26,1.66
2017155,Saskylakh,100,RU,1592143990,43,71.92,114.08,284.64,2.81
3421319,Nuuk,90,GL,1592143990,93,64.18,-51.72,276.15,5.1
2206939,Bluff,3,NZ,1592143991,84,-46.6,168.33,276.48,1.34
3833367,Ushuaia,16,AR,1592143778,93,-54.8,-68.3,270.15,3.1
1489870,Tayshet,1,RU,1592143991,66,55.93,98,293.55,1.77
898947,Senanga,67,ZM,1592143991,32,-16.12,23.27,298.18,4.41
3576994,Cockburn Town,100,TC,1592143991,79,21.46,-71.14,301.2,5.35
3373652,Oistins,40,BB,1592143991,66,13.07,-59.53,303.15,8.2
135298,Esfarāyen,20,IR,1592143992,12,37.08,57.51,310.15,4.1
5710360,Winnemucca,1,US,1592143992,81,40.97,-117.74,280.15,1.73
3374083,Bathsheba,40,BB,1592143992,66,13.22,-59.52,303.15,8.2
5866583,Saint Paul Harbor,90,US,1592143844,81,57.79,-152.41,284.15,3.1
2126710,Beringovskiy,0,RU,1592143992,89,63.05,179.32,277.44,3.97
527979,Medvedok,5,RU,1592143993,55,57.39,50.04,290.15,1.85
133964,Garmsār,0,IR,1592143993,7,35.22,52.34,312.46,4.46
4174715,Tallahassee,20,US,1592143912,69,30.44,-84.28,298.15,3.1
5563839,Fortuna,1,US,1592143993,100,40.6,-124.16,286.48,2.1
6170031,Tuktoyaktuk,20,CA,1592143994,81,69.45,-133.04,279.15,6.2
1521293,Lugovoy,100,KZ,1592143994,38,42.95,72.76,298.93,2.42
6185377,Yellowknife,75,CA,1592143994,71,62.46,-114.35,284.82,8.7
4020109,Atuona,17,PF,1592143994,75,-9.8,-139.03,299.75,8.21
3652764,Puerto Ayora,76,EC,1592143995,92,-0.74,-90.35,294.82,4.92
2419472,Kissidougou,77,GN,1592143995,83,9.18,-10.1,300.02,2.25
2121385,Severo-Kuril'sk,97,RU,1592143996,93,50.68,156.12,277.84,7.59
934322,Mahébourg,75,MU,1592143996,83,-20.41,57.7,296.15,2.6
5880054,Barrow,1,US,1592143996,86,71.29,-156.79,277.15,1.5
5848280,Kapaa,90,US,1592143996,65,22.08,-159.32,298.15,6.7
475100,Verkhniye Kigi,2,RU,1592143996,60,55.41,58.6,287.11,4.02
3466704,Castro,100,BR,1592143960,95,-24.79,-50.01,288.63,3.8
4036284,Alofi,91,NU,1592143997,88,-19.06,-169.92,294.15,8.2
2729907,Longyearbyen,75,SJ,1592143997,93,78.22,15.64,275.15,2.1
964432,Port Alfred,15,ZA,1592143997,59,-33.59,26.89,290.93,0.89
935215,Saint-Philippe,90,RE,1592143997,83,-21.36,55.77,296.15,8.7
2447513,Arlit,0,NE,1592143997,8,18.74,7.39,318.51,3.64
2075265,Busselton,56,AU,1592143997,59,-33.65,115.33,288.71,4.42
3662927,Pauini,100,BR,1592143997,93,-7.71,-66.98,297.11,0.5
3372707,Ribeira Grande,20,PT,1592143998,60,38.52,-28.7,293.15,7.2
527740,Melenki,100,RU,1592143998,58,55.33,41.63,291.92,5.47
6165406,Thompson,90,CA,1592143999,54,55.74,-97.86,288.15,2.1
1185183,Lākshām,99,BD,1592143999,79,23.25,91.14,301.58,3.99
556268,Ostrovnoy,88,RU,1592143999,44,68.05,39.51,294.52,2.23
2155415,New Norfolk,56,AU,1592143999,91,-42.78,147.06,283.71,0.45
3893726,Constitución,0,CL,1592144000,48,-35.33,-72.42,283.77,2.24
3369157,Cape Town,75,ZA,1592143663,87,-33.93,18.42,290.93,6.7
2110227,Butaritari,49,KI,1592144000,71,3.07,172.79,301.32,2.64
935214,Saint-Pierre,90,RE,1592144000,83,-21.34,55.48,296.15,8.7
5975004,High Level,75,CA,1592144000,93,58.52,-117.14,288.15,4.6
6089245,Norman Wells,75,CA,1592144001,54,65.28,-126.83,288.15,5.1
3144987,Beisfjord,93,NO,1592144001,52,68.38,17.6,292.15,8.2
4030556,Rikitea,8,PF,1592144001,79,-23.12,-134.97,297.29,7.63
3366880,Hermanus,7,ZA,1592144001,67,-34.42,19.23,290.93,1.34
5830007,Lander,1,US,1592144001,32,42.83,-108.73,290.15,1.5
3985710,Cabo San Lucas,0,MX,1592144002,85,22.89,-109.91,299.26,0.45
3831208,Qaanaaq,0,GL,1592144002,65,77.48,-69.36,279.08,2.64
3443061,Chui,0,UY,1592144002,54,-33.7,-53.46,281.81,2.88
1106677,Bambous Virieux,75,MU,1592144003,83,-20.34,57.76,296.15,2.6
6542137,Camaiore,20,IT,1592144003,68,43.91,10.24,296.48,5.1
2510542,Telde,37,ES,1592144003,69,27.99,-15.42,297.59,3.1
546105,Nikolskoye,6,RU,1592144004,33,59.7,30.79,296.15,5
2015852,Svetlaya,100,RU,1592143925,92,46.54,138.33,281.82,5.26
5905393,Bonavista,100,CA,1592144004,83,48.65,-53.11,285.37,2.68
2070998,Geraldton,0,AU,1592144004,87,-28.77,114.6,286.15,1.5
2016307,Solnechnyy,100,RU,1592144004,79,50.72,136.63,282.63,3.21
5847411,Kahului,40,US,1592144005,69,20.89,-156.47,297.15,6.2
1634614,Nabire,100,ID,1592144005,87,-3.37,135.48,298.07,1.31
1805680,Jingdezhen,100,CN,1592144005,84,29.29,117.21,300.23,1.34
3129371,Arroyo de la Encomienda,100,ES,1592144005,42,41.61,-4.8,295.37,5.1
933995,Souillac,75,MU,1592144006,83,-20.52,57.52,296.15,2.6
1242110,Kalmunai,100,LK,1592144006,78,7.42,81.82,302.32,3.17
4031574,Provideniya,20,RU,1592144006,82,64.38,-173.3,280.45,1.88
316795,Develi,75,TR,1592144006,49,38.39,35.49,293.15,3.1
5282297,Bethel,1,US,1592144007,58,41.37,-73.41,288.71,2.6
2022572,Khatanga,29,RU,1592144007,34,71.97,102.5,288.39,5.84
1785036,Zhangye,100,CN,1592144007,30,38.93,100.45,298.66,5.9
2068655,Katherine,0,AU,1592144007,43,-14.47,132.27,294.15,2.6
3883457,Lebu,0,CL,1592144007,57,-37.62,-73.65,281.84,2.82
3985168,San Patricio,40,MX,1592144007,78,19.22,-104.7,295.15,3.1
1215502,Banda Aceh,96,ID,1592144008,77,5.56,95.32,300.85,4.36
1791673,Weihai,0,CN,1592143908,55,37.5,122.11,293.55,3.39
3105522,Bereda,83,ES,1592144008,73,43.27,-7.54,294.26,3.58
3421982,Maniitsoq,94,GL,1592144008,87,65.42,-52.9,275.3,6.61
2654993,Bradford,61,GB,1592144008,81,53.79,-1.75,294.82,0.89
1253628,Ginda,87,IN,1592144008,47,30.69,78.49,296.81,1.14
1495797,Ovsyanka,40,RU,1592144009,72,55.96,92.55,292.15,12
3430863,Mar del Plata,0,AR,1592144009,74,-38,-57.56,283.71,2.6
3418910,Upernavik,0,GL,1592144009,89,72.79,-56.15,274.39,4.58
2180815,Tuatapere,94,NZ,1592144009,84,-46.13,167.68,276.48,1.34
3874787,Punta Arenas,90,CL,1592143845,95,-53.15,-70.92,275.15,7.7
2171099,Codrington,98,AU,1592144009,92,-38.27,141.97,285.71,6.2
964420,Port Elizabeth,100,ZA,1592144009,52,-33.92,25.57,292.15,7.7
5122534,Jamestown,1,US,1592143803,57,42.1,-79.24,286.48,5.1
1015776,Bredasdorp,44,ZA,1592144010,55,-34.53,20.04,292.15,6.38
2163355,Hobart,75,AU,1592144010,87,-42.88,147.33,285.93,6.2
4001056,La Orilla,53,MX,1592144010,78,17.98,-102.23,300.34,0.49
2338242,Ikom,90,NG,1592144010,70,5.97,8.71,303.62,1.98
2630299,Hofn,20,IS,1592144011,71,64.25,-15.21,286.15,5.7
1528998,Yumen,100,CN,1592144011,18,40.28,97.2,298.49,3.53
778707,Mehamn,50,NO,1592144011,73,71.04,27.85,283.27,11.17
5955902,Fort Nelson,90,CA,1592144011,93,58.81,-122.7,284.15,2.1
4032243,Vaini,75,TO,1592144011,73,-21.2,-175.2,295.15,5.1
3471368,Astorga,55,BR,1592143780,83,-23.23,-51.67,294.15,3.1
4696233,Harlingen,1,US,1592144012,69,26.19,-97.7,300.93,1.96
1006984,East London,0,ZA,1592144012,15,-33.02,27.91,294.15,4.1
3392907,Pastos Bons,18,BR,1592144012,55,-6.6,-44.08,302.18,5.05
777019,Vardø,40,NO,1592144012,66,70.37,31.11,284.62,5.6
479071,Umba,100,RU,1592144013,37,66.69,34.34,293.69,3.53
157429,Kilindoni,12,TZ,1592144014,71,-7.91,39.67,299.08,8.97
4033557,Tautira,26,PF,1592144014,78,-17.73,-149.15,298.15,1
1735106,George Town,20,MY,1592144014,74,5.41,100.34,303.15,3.1
1028918,Pemba,40,MZ,1592144014,65,-12.97,40.52,300.93,8.7
4033077,Vaitape,33,PF,1592143990,73,-16.52,-151.75,300.54,3.16
5546220,Saint George,1,US,1592143859,13,37.1,-113.58,294.15,4.1
5895424,Bay Roberts,90,CA,1592144015,100,47.6,-53.26,291.48,1
5870133,Nome,40,US,1592144015,62,64.5,-165.41,286.15,3.6
696943,Pidhorodne,25,UA,1592144015,54,48.58,35.11,300.15,4
3628473,San Cristobal,40,VE,1592143990,48,7.77,-72.22,303.15,5.1
2074865,Carnarvon,28,AU,1592144015,34,-24.87,113.63,293.65,9.45
955313,Siyabuswa,0,ZA,1592144016,26,-25.11,29.04,290.71,0.88
2132606,Samarai,88,PG,1592144016,82,-10.62,150.67,300.27,6.32
3446579,Terra Roxa,67,BR,1592144016,99,-23.86,-50.03,292.04,1.79
1786657,Yinchuan,100,CN,1592144016,16,38.47,106.27,301.05,4.27
189741,Lamu,0,KE,1592144016,76,-2.27,40.9,299.38,8.12
516647,Nyandoma,1,RU,1592143780,39,61.67,40.2,293.89,1.74
3406318,Barra do Corda,0,BR,1592144017,60,-5.5,-45.25,302.47,3.19
110690,Abhā,40,SA,1592143779,5,18.22,42.51,306.15,4.1
5855927,Hilo,90,US,1592144017,78,19.73,-155.09,296.15,3.1
5536630,Cedar City,1,US,1592143935,32,37.68,-113.06,285.15,4.1
2064735,Nhulunbuy,0,AU,1592144017,83,-12.23,136.77,299.15,5.1
1591474,Bac Lieu,100,VN,1592144017,82,9.29,105.72,301.75,4.42
2304548,Anloga,40,GH,1592144017,74,5.79,0.9,302.15,6.2
3687972,Calamar,20,CO,1592144018,79,10.25,-74.91,304.15,2.1
1805408,Jinsha,99,CN,1592144018,90,32.09,121.07,301.48,3.27
2126123,Chokurdakh,48,RU,1592144018,54,70.63,147.92,290.03,4.28
6111862,Port Hardy,20,CA,1592144018,100,50.7,-127.42,277.15,1
1282256,Hithadhoo,100,MV,1592144018,77,-0.6,73.08,302.43,5.63
5882953,Aklavik,40,CA,1592144018,71,68.22,-135.01,285.15,4.1
3389353,Santarém,0,BR,1592143997,62,-2.44,-54.71,302.66,2.21
2123814,Leningradskiy,68,RU,1592144019,89,69.38,178.42,280.55,2.97
3870243,Taltal,42,CL,1592144019,66,-25.4,-70.48,290.04,2.05
1525798,Balkhash,0,KZ,1592144019,25,46.84,74.98,300.23,5.18
3839307,Rawson,50,AR,1592144019,48,-43.3,-65.1,282.55,7.11
3574069,Mucurapo,20,TT,1592144020,66,10.67,-61.53,303.71,6.7
1272878,Dharampuri,76,IN,1592144020,63,22.17,75.35,303.77,4.2
306569,Konya Province,75,TR,1592144020,55,38.17,32.5,292.15,2.1
1529569,Changji,20,CN,1592144020,28,44.02,87.32,300.15,8
3471451,Arraial do Cabo,40,BR,1592144020,88,-22.97,-42.03,298.15,4.6
362973,Abnūb,0,EG,1592144020,23,27.27,31.15,308.15,5.7
2057087,Kupang,5,ID,1592144020,79,-10.17,123.58,298.48,5.49
2239862,Malanje,0,AO,1592144021,24,-9.54,16.34,301.88,2.74
2012956,Yerbogachën,3,RU,1592144021,89,61.28,108.01,286.05,2.93
2614432,Rudkøbing,0,DK,1592144021,60,54.94,10.71,295.15,9.8
1507390,Dikson,85,RU,1592144021,95,73.51,80.55,273.25,8.36
1529376,Korla,2,CN,1592144021,15,41.76,86.15,301.45,4.44
3897774,Buin,0,CL,1592144021,30,-33.73,-70.75,278.15,1
3393692,Itarema,60,BR,1592144022,71,-2.92,-39.92,301.22,5.88
3832899,Viedma,0,AR,1592144022,46,-40.81,-63,282.69,8
2136825,Isangel,17,VU,1592144022,79,-19.55,169.27,295.78,7.12
2303611,Esim,100,GH,1592144022,83,4.87,-2.24,300.23,4.92
2161515,Kiama,0,AU,1592144023,62,-34.68,150.87,286.48,5.36
2618795,Klaksvík,75,FO,1592144023,81,62.23,-6.59,285.15,5.1
1855342,Nishihara,20,JP,1592144023,88,26.18,127.76,301.15,4.1
3372964,Lagoa,22,PT,1592144023,74,39.05,-27.98,289.5,5.45
1817858,Babu,57,CN,1592144023,86,24.42,111.52,298.76,1.74
494519,Shikhany,57,RU,1592144023,63,52.12,47.22,290.58,7.62
2334327,Kisi,97,NG,1592144023,54,9.08,3.85,305.21,2.8
1024312,Mocuba,95,MZ,1592144024,87,-16.84,36.99,292.92,2.49
1805833,Jiexiu,52,CN,1592144024,21,37.02,111.91,297.86,0.55
5746545,Portland,90,US,1592144005,87,45.52,-122.68,284.26,1.45
2112309,Katsuura,100,JP,1592144024,94,35.13,140.3,298.15,2.68
1633419,Padang,26,ID,1592144024,78,-0.95,100.35,300.19,1.73
2264557,Ponta do Sol,40,PT,1592144025,73,32.67,-17.1,295.15,9.8
137268,Sūsangerd,0,IR,1592144025,6,31.56,48.18,316.48,8.76
5847486,Kailua,20,US,1592144025,51,21.4,-157.74,301.15,6.2
1855540,Naze,100,JP,1592144025,100,28.37,129.48,299.15,3.6
1685422,Sulangan,100,PH,1592144025,73,11.14,123.72,302.7,4.96
3899695,Ancud,90,CL,1592144026,100,-41.87,-73.82,280.93,3.1
5861897,Fairbanks,20,US,1592143897,87,64.84,-147.72,286.48,2.1
1070940,Fenoarivo,20,MG,1592144026,55,-18.93,47.44,290.15,6.2
2172880,Byron Bay,100,AU,1592143635,88,-28.65,153.62,291.48,2.1
3456368,Naviraí,100,BR,1592144026,81,-23.07,-54.19,291.31,1.55
6167817,Torbay,90,CA,1592144027,93,47.67,-52.73,290.93,2.6
3385899,Tutóia,41,BR,1592143806,61,-2.76,-42.27,303.11,2.21
1486321,Yar-Sale,86,RU,1592144027,55,66.83,70.83,281.31,11.58
477940,Ust-Tsilma,1,RU,1592144027,32,65.44,52.15,295.47,4.53
1168312,Pasni,0,PK,1592144027,81,25.26,63.47,302.93,5.45
2656173,Bath,7,GB,1592143892,67,51.38,-2.36,293.71,1.79
2184707,Wanaka,49,NZ,1592143994,87,-44.7,169.15,276.48,0.89
2629833,Husavik,75,IS,1592143852,50,66.04,-17.34,287.15,6.2
3645532,Ciudad Bolivar,49,VE,1592144028,56,8.12,-63.55,303.84,4.38
4540737,Lawton,1,US,1592143921,57,34.61,-98.39,299.26,4.1
5924351,Clyde River,90,CA,1592144028,81,70.47,-68.59,278.15,6.7
2414925,Telimele,40,GN,1592144029,53,10.92,-13.33,305.43,1.72
2537881,Safi,0,MA,1592144029,60,32.3,-9.24,296.03,7.92
3386213,Touros,40,BR,1592144029,78,-5.2,-35.46,301.15,3.6
2189343,Kaeo,76,NZ,1592144029,3,-35.1,173.78,283.71,1.34
2120334,Tymovskoye,98,RU,1592144029,94,50.85,142.66,279.61,1.05
986717,Kruisfontein,100,ZA,1592144029,40,-34,24.73,288.62,4.08
3115824,Muros,49,ES,1592144030,78,42.78,-9.06,290.93,5.81
509483,Pinega,91,RU,1592144030,36,64.7,43.39,296.66,3.74
3446619,Terenos,20,BR,1592144030,73,-20.44,-54.86,296.15,4.1
3374333,Praia,8,CV,1592144030,43,14.92,-23.51,305.15,6.7
2925080,Gezing,75,AT,1592144030,87,47.92,13.13,289.15,1
576626,Betlitsa,100,RU,1592144031,83,54.01,33.96,290.2,5.86
2194098,Ahipara,12,NZ,1592144031,84,-35.17,173.17,285.14,3.71
4470244,Havelock,90,US,1592144031,83,34.88,-76.9,294.15,4.6
326036,Yabēlo,94,ET,1592144032,70,4.88,38.08,293.25,1.67
5983607,Inuvik,20,CA,1592144032,71,68.35,-133.72,287.15,1.65
1279945,Jiuquan,100,CN,1592144032,19,39.74,98.52,298.58,4.43
4593724,Saint Andrews,20,US,1592144032,64,34.05,-81.13,298.71,4.1
3836873,San Miguel de Tucumán,0,AR,1592143810,71,-26.82,-65.22,284.15,2.1
2063056,Port Augusta,0,AU,1592144033,67,-32.5,137.77,287.15,5.7
569122,Chermoz,0,RU,1592144033,62,58.79,56.15,287.64,2.95
1819729,Hong Kong,97,HK,1592143994,78,22.29,114.16,300.93,2.24
2126682,Bilibino,77,RU,1592144033,77,68.05,166.44,284.35,1.08
1269557,Masaurhi,40,IN,1592144033,70,25.35,85.03,305.15,3.1
3664980,Boa Vista,75,BR,1592144034,83,2.82,-60.67,299.15,3.6
86049,Jalu,0,LY,1592144034,11,29.03,21.55,310.31,2.57
1045114,Inhambane,40,MZ,1592144034,57,-23.86,35.38,297.15,2.6
1344069,Contai,100,IN,1592144034,79,21.78,87.75,303.22,4.1
3372472,Vila Franca do Campo,20,PT,1592144035,68,37.72,-25.43,291.15,2.6
5557293,Sitka,90,US,1592143766,87,57.05,-135.33,283.15,2.6
5920288,Charlottetown,75,CA,1592143862,81,46.24,-63.13,283.71,6.2
1688696,San Policarpo,100,PH,1592144035,81,12.18,125.51,301.12,2.04
3577154,Oranjestad,40,AW,1592143791,70,12.52,-70.03,302.15,10.8
3372783,Ponta Delgada,20,PT,1592143847,68,37.73,-25.67,291.15,2.6
2525362,Carbonia,20,IT,1592144035,36,39.17,8.52,300.15,8.2
499493,Sadovyy,75,RU,1592144035,68,53.3,34.33,294.15,5
3443631,Bella Union,0,UY,1592144036,55,-30.28,-57.6,282.41,3.43
6620339,Karratha,15,AU,1592144036,40,-20.74,116.85,296.93,5.84
98182,Baghdad,0,IQ,1592143960,14,33.34,44.4,313.15,3.6
3054600,Buják,75,HU,1592144036,93,47.88,19.54,291.15,3.1
1650232,Banjar,40,ID,1592144036,100,-8.19,114.97,301.15,5.1
5972291,Havre-St-Pierre,1,CA,1592144036,49,50.23,-63.6,286.15,2.1
2381334,Atar,79,MR,1592144037,12,20.52,-13.05,315.69,11.12
4035715,Avarua,75,CK,1592144037,60,-21.21,-159.78,295.15,7.2
2093846,Kiunga,89,PG,1592144037,97,-6.12,141.29,296.92,1.09
3430988,Luján,0,AR,1592144037,53,-34.57,-59.1,283.15,1.34
1651810,Airai,26,TL,1592144038,100,-8.93,125.41,288.46,1.89
3430443,Necochea,0,AR,1592144038,65,-38.55,-58.74,280.93,3.58
2013279,Vostok,100,RU,1592144038,100,46.49,135.88,284.13,1.55
2939797,Crailsheim,99,DE,1592144038,87,49.13,10.07,288.15,4.1
2063042,Port Hedland,40,AU,1592144038,43,-20.32,118.57,296.15,3.6
2094342,Kavieng,52,PG,1592144039,77,-2.57,150.8,301.71,3.82
3437056,San Lorenzo,1,PY,1592144039,47,-25.33,-57.53,286.15,6.7
2034691,Songjianghe,6,CN,1592144039,68,42.19,127.48,285.71,2.76
207596,Mweka,79,CD,1592144039,27,-4.85,21.57,306.19,1.26
2312895,Mbandaka,91,CD,1592144039,61,0.05,18.26,302.13,0.93
1644522,Gampengrejo,95,ID,1592144040,87,-7.77,112.02,298.7,2.98
1525988,Ayagoz,97,KZ,1592144040,56,47.97,80.44,293.62,4.67
1715335,Davila,0,PH,1592144040,73,18.47,120.58,302.06,1.92
3946937,Azángaro,0,PE,1592144040,74,-14.92,-70.22,276.15,1
3839982,Punta Alta,0,AR,1592144040,43,-38.88,-62.07,284.09,6.99
1254046,Tura,100,IN,1592144040,94,25.52,90.22,298.23,1.8
1812955,Dezhou,0,CN,1592144041,19,37.45,116.29,300.33,2.89
2318123,Yenagoa,100,NG,1592144041,85,4.92,6.26,299.74,3.65
3932145,Pisco,90,PE,1592144041,93,-13.7,-76.22,290.37,2.1
5095617,Berkeley Heights,1,US,1592144041,39,40.68,-74.44,292.04,2.6
6542092,Anzio,38,IT,1592144041,59,41.49,12.62,297.59,3.58
2374583,Bubaque,11,GW,1592144042,68,11.28,-15.83,301.08,3.33
4021858,Guerrero Negro,0,MX,1592143762,78,27.98,-114.06,291.08,7.16
602913,Skellefteå,98,SE,1592144043,32,64.75,20.95,301.15,6.2
3175096,Laas,40,IT,1592144043,62,46.62,10.7,289.82,4.1
3466165,Cidreira,2,BR,1592143911,64,-30.18,-50.21,284.27,3.41
3374166,Tarrafal,41,CV,1592144043,43,15.28,-23.77,305.15,6.7
608271,Shubarkuduk,59,KZ,1592144043,34,49.14,56.49,301.77,5.52
1266926,Khargupur,62,IN,1592144044,38,27.38,81.98,310.19,1.35
3533462,Acapulco de Juárez,75,MX,1592143845,83,16.86,-99.89,300.15,3.1
286621,Salalah,75,OM,1592144044,79,17.02,54.09,305.15,5.1
543728,Kotelnikowo,100,RU,1592144045,43,47.63,43.15,302.83,11.78
1649150,Bengkulu,0,ID,1592143956,83,-3.8,102.27,299.5,2.8
5324862,Artesia,40,US,1592144045,68,33.87,-118.08,291.48,2.6
528495,Matveyev Kurgan,48,RU,1592144045,49,47.56,38.87,302.75,3.04
5972762,Hay River,75,CA,1592144045,87,60.82,-115.8,279.15,5.1
3401845,Conceição do Araguaia,12,BR,1592143794,48,-8.26,-49.26,303.15,5.1
2281120,Tabou,94,CI,1592144046,80,4.42,-7.35,300.52,4.55
1803886,Lianran,75,CN,1592144046,82,24.92,102.48,295.37,6
3161733,Bergen,75,NO,1592144046,77,60.39,5.33,292.59,2.6
2396853,Omboué,100,GA,1592144046,82,-1.57,9.26,297.94,4.17
1510041,Biryusinsk,2,RU,1592144046,68,55.96,97.82,293.47,1.81
1631637,Pemangkat,100,ID,1592144047,74,1.17,108.97,300.56,1.57
505043,Privolzhye,0,RU,1592144047,63,52.86,48.6,290.9,6.02
537541,Kvarkeno,96,RU,1592144048,42,52.08,59.73,289.73,3.61
5850554,Makakilo City,75,US,1592144048,73,21.35,-158.09,297.15,6.31
5457180,Bernalillo,20,US,1592144048,63,35.05,-106.67,295.37,1.5
3489657,Lucea,75,JM,1592144048,74,18.45,-78.17,303.71,0.5
1503726,Kharp,77,RU,1592144048,54,66.8,65.81,282.15,5.91
3836277,Santa Fe,0,AR,1592143767,44,-31.63,-60.7,284.82,2.68
1511094,Bagan,71,RU,1592144049,62,54.1,77.66,287.7,3.72
2520645,Cabra,0,ES,1592144049,31,37.47,-4.44,299.82,2.68
2409215,Mattru,96,SL,1592144049,90,7.62,-11.83,299.99,3.77
3448903,São João da Barra,0,BR,1592144050,73,-21.64,-41.05,298.15,6.2
3402429,Caucaia,75,BR,1592144050,66,-3.74,-38.65,303.15,7.7
2208248,Kaitangata,0,NZ,1592144050,69,-46.28,169.85,278.71,0.45
3393008,Parintins,0,BR,1592144050,64,-2.63,-56.74,303.42,2.18
3416888,Grindavik,90,IS,1592144050,87,63.84,-22.43,283.15,8.7
3092906,Lubliniec,75,PL,1592144051,72,50.67,18.68,294.82,4.6
5742974,North Bend,20,US,1592144051,100,43.41,-124.22,284.82,2.6
3395042,Mazagão,75,BR,1592144051,89,-0.12,-51.29,302.15,3.1
3424607,Tasiilaq,100,GL,1592144051,86,65.61,-37.64,276.15,19
3984997,San Quintín,3,MX,1592144052,80,30.48,-115.95,290.54,6.22
5127305,Monroe,20,US,1592144052,54,43.15,-77.68,289.26,2.6
3695844,Lagunas,45,PE,1592144052,89,-5.23,-75.68,298.83,1.46
5072006,Lincoln,1,US,1592143981,57,40.8,-96.67,299.26,8.2
2249281,Linguère,18,SN,1592144052,18,15.4,-15.12,313.96,2.04
1489057,Tugulym,78,RU,1592144053,44,57.06,64.64,288.15,6
364933,Umm Kaddadah,51,SD,1592144053,12,13.6,26.69,313.23,2.25
2810284,Westerland,20,DE,1592144053,53,54.91,8.3,296.15,9.8
555111,Ivanteyevka,93,RU,1592144053,37,55.97,37.92,295.15,7
4791259,Virginia Beach,75,US,1592144030,60,36.85,-75.98,294.26,6.2
2019935,Mnogovershinnyy,79,RU,1592143926,99,53.94,139.92,276.35,2.16
2090021,Namatanai,76,PG,1592144054,83,-3.67,152.43,300.24,3.13
53654,Mogadishu,75,SO,1592144054,62,2.04,45.34,302.15,7.7
5859699,College,75,US,1592144054,87,64.86,-147.8,286.48,0.78
2087894,Rabaul,4,PG,1592144054,80,-4.2,152.17,300.62,4.65
1033356,Nampula,75,MZ,1592144054,60,-15.12,39.27,297.04,5.1
4255151,Bud,40,US,1592144054,48,39.45,-86.18,290.93,4.1
3423146,Ilulissat,75,GL,1592144055,74,69.22,-51.1,276.15,4.6
5354943,Half Moon Bay,75,US,1592144055,93,37.46,-122.43,288.71,0.47
2274895,Monrovia,75,LR,1592144055,79,6.3,-10.8,302.15,3.1
1788046,Xuchang,80,CN,1592144056,42,34.02,113.82,302.15,1
1268820,Jorhāt,27,IN,1592143933,78,26.75,94.22,302.06,1.26
3454763,Patrocínio,0,BR,1592144056,55,-18.94,-46.99,298.71,3.58
1490256,Talnakh,100,RU,1592144056,66,69.49,88.4,285.15,3
4513583,Hamilton,90,US,1592143841,62,39.18,-84.53,287.59,2.6
3470137,Belmonte,40,BR,1592144057,74,-15.86,-38.88,300.15,2.6
464179,Zavetnoye,99,RU,1592144057,20,47.12,43.89,308.22,3.92
2527087,Tiznit Province,0,MA,1592144057,23,29.58,-9.5,300.47,5.59
2122090,Pevek,0,RU,1592144057,87,69.7,170.31,276.02,3.16
1684803,Tabuk,33,PH,1592144057,85,17.42,121.44,297.47,1.47
1214488,Meulaboh,100,ID,1592144057,88,4.14,96.13,299.4,2.21
4505215,Amberley,90,US,1592144058,62,39.2,-84.43,288.15,2.6
6540843,Palma di Montechiaro,3,IT,1592144058,100,37.19,13.77,302.59,3.58
2137773,Vao,24,NC,1592144058,74,-22.67,167.48,295.39,9.56
2638419,Scarborough,100,GB,1592144058,82,54.28,-0.4,290.93,0.89
5954718,Flin Flon,90,CA,1592144059,59,54.77,-101.86,290.15,3.6
2015306,Tiksi,100,RU,1592144059,92,71.69,128.87,274.12,1.66
1803365,Linqiong,66,CN,1592144059,58,30.42,103.46,304.26,2
1495626,Pangody,100,RU,1592144059,75,65.85,74.49,278.77,11.53
3887127,Iquique,90,CL,1592144059,72,-20.22,-70.14,290.15,1.5
2027244,Bagdarin,57,RU,1592144059,64,54.43,113.6,287.45,2.3
4034551,Faanui,33,PF,1592144059,74,-16.48,-151.75,300.05,3.21
779330,Kautokeino,19,NO,1592144060,37,69.01,23.04,294.5,8.31
3359638,Walvis Bay,0,NA,1592144060,14,-22.96,14.51,302.15,6.2
314716,Gediz,49,TR,1592144060,53,39.04,29.41,294.68,4.4
739236,Sungurlu,97,TR,1592144060,37,40.17,34.37,295.99,4.32
116406,Semīrom,0,IR,1592144060,15,31.42,51.57,298.44,7.56
6166142,Thunder Bay,20,CA,1592144061,62,48.4,-89.32,286.15,3.6
359796,Suez,0,EG,1592144061,22,29.97,32.53,305.88,7.91
792866,Barič,11,RS,1592144061,45,44.65,20.26,301.15,4.6
4034188,Moerai,100,PF,1592144061,67,-22.43,-151.33,295.53,7.62
2177069,Ballina,100,AU,1592144061,88,-28.87,153.57,291.48,2.1
53157,Qandala,87,SO,1592144061,48,11.47,49.87,307.03,0.94
3374210,São Filipe,35,CV,1592144062,74,14.9,-24.5,299.06,2.83
1121143,Zabul Province,0,AF,1592144062,11,32.25,67.25,302.59,5.16
3893629,Coquimbo,40,CL,1592144029,100,-29.95,-71.34,283.15,0.5
3382160,Cayenne,75,GF,1592143871,70,4.93,-52.33,302.15,2.1
1698289,Pundaguitan,100,PH,1592144062,83,6.37,126.17,300.24,5.95
1250161,Batticaloa,100,LK,1592144062,78,7.71,81.69,302.64,2.34
3381428,Iracoubo,0,GF,1592144062,72,5.48,-53.2,301.54,1.28
239899,Bria,39,CF,1592144063,66,6.54,21.99,302.77,2.35
4552215,Stillwater,1,US,1592143917,54,36.12,-97.06,300.37,4.6
1710618,Ipil,100,PH,1592144063,86,7.75,122.52,298.17,1.23
1524606,Derzhavīnsk,22,KZ,1592144063,36,51.1,66.32,290.99,8.5
5749352,Roseburg,75,US,1592143876,81,43.22,-123.34,285.15,0.67
1106643,Quatre Cocos,75,MU,1592144063,83,-20.21,57.76,296.15,2.6
3421719,Narsaq,40,GL,1592144063,64,60.92,-46.05,282.15,8.7
921900,Dzaoudzi,0,YT,1592144064,58,-12.79,45.27,301.15,5.7
5563397,Eureka,41,US,1592143906,6,40.8,-124.16,287.04,0.82
5380437,Pacific Grove,90,US,1592144064,77,36.62,-121.92,288.71,1.87
1861280,Itoman,20,JP,1592144064,94,26.12,127.67,301.15,4.1
1853371,Ryōtsu-minato,90,JP,1592144064,100,38.08,138.43,295.15,4.6
1732945,Cukai,71,MY,1592144064,88,4.25,103.42,301.15,1
1526384,Almaty,40,KZ,1592144064,25,43.25,76.95,302.15,3
2065594,Mount Isa,0,AU,1592144065,34,-20.73,139.5,293.15,5.1
3703938,Natá,93,PA,1592144065,80,8.33,-80.52,298.15,0.95
1737486,Bintulu,75,MY,1592144065,94,3.17,113.03,301.15,0.5
3395981,Maceió,90,BR,1592143872,100,-9.67,-35.74,296.15,3.1
2173911,Broken Hill,0,AU,1592144065,62,-31.95,141.43,284.15,3.6
6171633,Ucluelet,40,CA,1592144066,100,48.93,-125.55,284.82,1
2015913,Suntar,67,RU,1592144066,82,62.14,117.63,283.44,1.33
1513491,Yangi Marg`ilon,59,UZ,1592144066,10,40.43,71.72,307.15,3.1
2122389,Ossora,33,RU,1592144066,69,59.24,163.07,282.35,0.85
6324729,Halifax,100,CA,1592143794,85,44.65,-63.57,290.37,1.34
1853174,Sakaiminato,75,JP,1592144066,88,35.55,133.23,298.15,7.7
2178753,Kirakira,87,SB,1592144066,82,-10.45,161.92,299.67,5.41
159186,Ilongero,61,TZ,1592144067,41,-4.67,34.87,296.58,3.03
3024035,Concarneau,40,FR,1592144067,63,47.88,-3.92,292.15,5.1
2738381,Lata,100,PT,1592144067,63,40.16,-8.33,294.82,3.13
2332453,Lagos,75,NG,1592144067,94,6.58,3.75,300.15,1
1816790,Beibei,20,CN,1592144067,78,29.83,106.43,300.15,2
625144,Bolshevik,75,BY,1592144067,87,54.01,27.57,287.15,3
2450849,Sokolo,0,ML,1592144068,14,14.73,-6.12,315.94,6.31
2191562,Dunedin,0,NZ,1592144068,69,-45.87,170.5,279.26,0.45
2338660,Yaan,92,NG,1592144068,60,7.38,8.57,304.4,2.41
2501152,Constantine,20,DZ,1592143793,29,36.37,6.61,299.15,4.6
686090,Asău,77,RO,1592144068,68,46.43,26.4,296.48,2.6
2063036,Port Lincoln,23,AU,1592144069,83,-34.73,135.87,288.51,8.19
343292,Āsosa,100,ET,1592144069,84,10.07,34.53,295.09,1.72
2112802,Hasaki,75,JP,1592144069,94,35.73,140.83,297.15,5.1
2111884,Miyako,100,JP,1592144047,94,39.64,141.95,291.73,3.15
3450083,Santa Maria,0,BR,1592144069,65,-29.68,-53.81,281.15,2.1
3163146,Andenes,75,NO,1592144069,76,69.31,16.12,285.15,6.7
2641434,Northam,91,GB,1592144069,89,51.03,-4.22,290.93,0.89
1651531,Ambon City,40,ID,1592144070,88,-3.7,128.18,299.15,1.5
3361934,Saldanha,2,ZA,1592144070,55,-33.01,17.94,292.15,2.6
780717,Båtsfjord,92,NO,1592144070,56,70.63,29.72,285.95,8.66
1862505,Hirara,0,JP,1592144014,84,24.8,125.28,301.78,5.3
1505466,Isetskoye,66,RU,1592144071,60,56.49,65.32,287.04,3.19
1267390,Kavaratti,100,IN,1592144071,76,10.57,72.64,303.11,9.68
4328010,Houma,0,US,1592144071,84,29.6,-90.72,300.93,1.34
4580575,Greenwood,1,US,1592144071,68,34.17,-82.12,297.04,4.1
1035025,Nacala,75,MZ,1592144071,51,-14.54,40.67,301.15,7.7
2392505,Nikki,100,BJ,1592144071,46,9.94,3.21,307.1,2.09
921786,Mitsamiouli,43,KM,1592144072,67,-11.38,43.28,299.79,8.01
2071860,Esperance,57,AU,1592144072,71,-33.87,121.9,287.15,4.6
3081752,Władysławowo,0,PL,1592144072,55,54.79,18.4,291.15,7.2
609919,Quryq,11,KZ,1592144072,14,43.2,51.65,308.03,4.19
1131162,Panjāb,0,AF,1592144072,23,34.39,67.02,291.85,6.47
1487332,Verkhnyaya Inta,91,RU,1592144072,58,65.98,60.31,283.59,6.27
2126199,Cherskiy,52,RU,1592144073,57,68.75,161.3,287.5,1.64
3386931,Tamandaré,0,BR,1592143909,73,-8.76,-35.1,301.06,6.5
3402648,Carutapera,4,BR,1592144073,82,-1.2,-46.02,301.33,2.58
1337607,Kudahuvadhoo,7,MV,1592144073,81,2.67,72.89,302.28,5.98
2094027,Kieta,59,PG,1592144073,77,-6.22,155.63,299.81,1.88
1805733,Jinchang,100,CN,1592144073,36,38.5,102.17,297.62,1.2
2434985,Bokoro,0,TD,1592144073,24,12.38,17.06,312.07,0.12
1283285,Jumla,12,NP,1592144074,70,29.27,82.18,290.19,1.58
2036973,Heihe,40,CN,1592144074,100,50.24,127.49,286.15,3
3380450,Roura,75,GF,1592144074,70,4.73,-52.33,302.15,2.1
1606586,Samut Songkhram,100,TH,1592144074,48,13.41,100,307.04,2.21
698346,Orzhytsya,12,UA,1592144075,72,49.79,32.7,297.89,5.23
7647007,Bariloche,20,AR,1592144075,86,-41.15,-71.31,272.15,2.1
6541341,Porto Empedocle,0,IT,1592144075,50,37.29,13.53,302.59,3.13
1504382,Kargasok,100,RU,1592144075,91,59.06,80.86,280.58,7.8
5261790,Marathon,1,US,1592144075,71,44.9,-89.77,287.15,3.6
6126749,Rocky Mountain House,31,CA,1592144076,86,52.37,-114.92,285.18,2.84
286987,Nizwá,75,OM,1592144076,13,22.93,57.53,314.82,4.88
2524379,Lipari,17,IT,1592144076,80,38.47,14.95,297.04,2.68
2128975,Nemuro,100,JP,1592144076,87,43.32,145.57,286.92,3.91
2255564,Ouésso,87,CG,1592144076,47,1.61,16.05,305.8,0.89
1494237,Predivinsk,100,RU,1592144076,94,57.07,93.44,290.42,1.61
2206874,Waipawa,1,NZ,1592144076,81,-41.41,175.52,281.15,2.1
3141667,Roald,40,NO,1592144077,72,62.58,6.13,293.15,3.1
6096551,Pangnirtung,99,CA,1592144077,86,66.15,-65.71,274.68,2.13
3150002,Kjøpsvik,78,NO,1592144077,52,68.1,16.37,292.15,8.2
2449893,Tessalit,0,ML,1592144077,6,20.2,1.01,317.46,12.06
4333811,Morgan City,20,US,1592144077,88,29.7,-91.21,300.37,4.6
3445026,Vila Velha,0,BR,1592143831,69,-20.33,-40.29,300.37,5.1
3354071,Oranjemund,0,NA,1592144077,30,-28.55,16.43,289.95,4.84
934479,Grand Gaube,0,MU,1592144077,79,-20.01,57.66,295.93,3.13
1507116,Dudinka,100,RU,1592144078,66,69.41,86.18,285.15,3
934649,Cap Malheureux,0,MU,1592144078,79,-19.98,57.61,295.93,3.13
1582436,Don Luan,100,VN,1592144078,97,11.53,106.92,296.96,2.48
2019884,Mogzon,14,RU,1592144078,72,51.74,111.96,286.38,0.59
1337613,Kulhudhuffushi,67,MV,1592144078,80,6.62,73.07,302.5,7.04
4946620,Palmer,40,US,1592144078,62,42.16,-72.33,290.93,2.6
3462916,Frutal,0,BR,1592144079,53,-20.02,-48.94,299.57,4.14
2377457,Nouadhibou,56,MR,1592144079,24,20.93,-17.03,311.15,9.3
255689,Patitiri,20,GR,1592144079,39,39.15,23.87,302.04,2.6
1895695,Kushima,100,JP,1592144079,100,31.46,131.23,298.15,3.58
651299,Korsholm,3,FI,1592143960,33,63.11,21.68,297.15,5.1
3897347,Calama,20,CL,1592144079,31,-22.47,-68.93,281.15,7.7
1852357,Shimoda,100,JP,1592144079,93,34.67,138.95,295.37,2.24
2120047,Ust'-Omchug,39,RU,1592144080,76,61.15,149.63,283.2,1.68
217637,Businga,96,CD,1592144080,53,3.33,20.88,305.11,1.03
4026082,Lázaro Cárdenas,54,MX,1592143802,78,17.96,-102.2,300.42,0.54
1855891,Nakamura,93,JP,1592144080,91,32.98,132.93,297.48,2.8
2980080,Saint-François,1,FR,1592144081,46,46.42,3.91,295.15,1.5
6541905,Nola,0,IT,1592144081,47,40.92,14.53,299.26,3.13
3671437,Caucayá,100,CO,1592144081,99,-0.19,-74.78,295.25,0.44
3907685,Poopó,44,BO,1592144081,57,-18.37,-66.97,281.05,3.37
2439155,Tanout,20,NE,1592144081,12,14.97,8.89,315.44,4.36
4565090,Guánica,16,PR,1592144082,53,17.97,-66.91,304.82,2.68
3929611,San Jerónimo,71,PE,1592144082,59,-11.95,-75.28,283.39,0.94
4031637,Lavrentiya,10,RU,1592144082,78,65.58,-171,279.78,1.98
2028078,Aginskoye,24,RU,1592143925,64,51.1,114.53,288.68,1.53
286245,Sur,0,OM,1592144082,50,22.57,59.53,307.46,1.96
3157549,Finnsnes,75,NO,1592144082,42,69.23,17.98,292.15,9.8
2015179,Tommot,46,RU,1592144083,88,58.96,126.29,284.99,0.51
3979494,Estación Coahuila,5,MX,1592144083,28,32.19,-115,294.15,3.35
2018735,Nyurba,0,RU,1592144083,93,63.28,118.33,283.4,2.09
3414079,Olafsvik,99,IS,1592144083,94,64.89,-23.71,282.12,6.08
2122614,Okha,100,RU,1592144083,96,53.57,142.95,276.21,4.51
2120048,Ust-Nera,100,RU,1592144084,54,64.57,143.2,287.78,1.08
2647356,Hastings,33,GB,1592144084,68,50.86,0.57,293.15,4.1
3585968,El Salvador,20,SV,1592144084,88,13.83,-88.92,299.15,1
3372760,Praia da Vitória,40,PT,1592144084,60,38.73,-27.07,293.15,4.19
2377450,Nouakchott,0,MR,1592144084,11,18.09,-15.98,317.15,12.9
2145214,Victoria Point,94,AU,1592144084,96,-27.58,153.3,291.48,1.87
1792592,Tongren,53,CN,1592144085,89,27.72,109.19,298.89,2.03
3465329,Coruripe,32,BR,1592143946,82,-10.13,-36.18,299.39,7.39
1630639,Pringsewu,0,ID,1592144085,87,-5.36,104.97,296.96,0.64
3372745,Rabo de Peixe,20,PT,1592144085,68,37.8,-25.58,291.15,2.6
1797117,Rongcheng,100,CN,1592144085,90,30.63,117.85,299.22,1.44
2920896,Gerstetten,100,DE,1592144086,90,48.63,10.03,288.15,2.68
1650434,Bambanglipuro,16,ID,1592144086,84,-7.95,110.28,299.9,5.32
6949678,Taitung City,9,TW,1592144086,78,22.76,121.14,301.42,2.22
1539209,Gubkinskiy,100,RU,1592144086,63,64.43,76.5,280.01,11.72
178522,Voi,83,KE,1592144086,43,-3.39,38.56,300.01,6.75
1609345,Kuchinarai,20,TH,1592144086,88,16.54,104.05,304.26,2.6
503581,Pyaozerskiy,62,RU,1592144086,28,65.83,31.17,297.74,5.19
2012530,Zhigansk,35,RU,1592144087,84,66.77,123.37,283.65,4.59
2961299,Swinford,40,IE,1592144087,77,53.95,-8.95,292.59,4.6
5711149,Altamont,40,US,1592144087,81,42.21,-121.74,280.93,1.5
6148373,Sioux Lookout,20,CA,1592143826,58,50.1,-91.92,286.15,3.1
2120591,Tilichiki,0,RU,1592144088,80,60.47,166.1,278.36,1.02
1798632,Pingyin,100,CN,1592144088,26,36.28,116.45,304.82,0.83
533933,Lovozero,100,RU,1592144088,31,68,35.01,298.13,8.82
1238427,Kuliyapitiya,100,LK,1592144088,74,7.47,80.04,302.15,4.1
5983720,Iqaluit,75,CA,1592144088,80,63.75,-68.51,275.15,2.6
1502879,Kolosovka,36,RU,1592144089,72,56.47,73.61,285.24,4.35
6137462,Saint-Augustin,0,CA,1592144089,39,51.23,-58.65,286.18,0.45
2210554,Sirte,0,LY,1592144089,22,31.21,16.59,307.88,6.84
3838859,Río Gallegos,90,AR,1592144089,86,-51.62,-69.22,276.15,4.6
492579,Siverskiy,86,RU,1592144089,33,59.35,30.08,296.15,5
6144312,Sept-Îles,20,CA,1592144090,40,50.2,-66.38,285.37,5.1
3379507,Bartica,75,GY,1592144090,88,6.4,-58.62,300.15,2.1
2258378,Loandjili,75,CG,1592144090,65,-4.76,11.86,300.15,5.7
3694112,Paita,97,PE,1592144090,75,-5.09,-81.11,292.21,3.7
110690,Faya,40,SA,1592144090,5,18.39,42.45,306.15,4.1
3452712,Porto Murtinho,93,BR,1592144090,55,-21.7,-57.88,290.32,2.83
8079926,Labuhan,36,ID,1592144091,81,-6.88,112.21,300.2,3.87
3038333,Arrondissement d'Ajaccio,87,FR,1592144091,60,42,8.92,297.15,5.7
1263968,Manali,75,IN,1592144091,52,13.17,80.27,307.15,2.6
5703673,Elko,93,US,1592144091,63,41,-115.5,282.59,0.89
1135689,Kunduz,0,AF,1592144091,10,36.73,68.86,308.38,3.37
5478673,Meadow Lake,20,US,1592144092,63,34.8,-106.54,294.26,1.5
4231997,Avera,1,US,1592144092,65,33.19,-82.53,298.15,3.6
2025630,Chara,82,RU,1592144092,65,56.91,118.26,285.01,2.13
1610940,Det Udom,20,TH,1592144092,79,14.91,105.08,302.15,1
3469294,Bonito,95,BR,1592144093,84,-21.12,-56.48,294.09,1.8
2122493,Omsukchan,18,RU,1592144093,59,62.53,155.8,284.67,1.34
1560349,Yen Bai,100,VN,1592144093,89,21.7,104.87,300.05,1.78
2511366,San Javier,0,ES,1592144093,34,37.81,-0.84,302.59,3.6
3452925,Ipanema,0,BR,1592144093,57,-30.14,-51.22,284.15,2.1
1529102,Ürümqi,20,CN,1592144094,28,43.8,87.6,300.15,8
552256,Karpogory,100,RU,1592144094,44,64,44.45,295.23,3.4
1540711,Muravlenko,100,RU,1592144094,63,63.79,74.52,280.59,11.46
2035593,Nianzishan,100,CN,1592144094,85,47.52,122.88,283.15,1.34
2125693,Evensk,0,RU,1592144094,76,61.95,159.23,282.72,1.33
3587498,Acajutla,6,SV,1592144094,84,13.59,-89.83,298.15,1.14
3388145,São Raimundo Nonato,3,BR,1592144095,46,-9.02,-42.7,303.16,5.35
4692856,Galveston,1,US,1592143864,65,29.37,-94.97,300.93,4.1
2127202,Anadyr,20,RU,1592143924,88,64.75,177.48,276.15,5
3996426,Matamoros,5,MX,1592144095,46,25.53,-103.25,294.26,5.09
2156927,Moree,100,AU,1592144095,81,-29.47,149.85,284.15,4.1
364027,Wagar,13,SD,1592144095,17,16.15,36.2,313.73,0.93
2180991,Tolaga Bay,9,NZ,1592144095,83,-38.37,178.3,279.92,2.39
3353383,Rundu,0,NA,1592144096,19,-17.93,19.77,297.63,2.78
1028434,Quelimane,75,MZ,1592144096,60,-17.88,36.89,298.15,4.1
2319133,Warri,100,NG,1592144033,78,5.52,5.75,301.26,2.79
95446,Erbil,40,IQ,1592143890,11,36.19,44.01,309.15,3.1
55671,Kismayo,1,SO,1592143806,71,-0.36,42.55,300.22,8.48
2156034,Muswellbrook,0,AU,1592144096,54,-32.27,150.9,285.93,3.58
3572189,High Rock,75,BS,1592144096,83,26.62,-78.28,300.15,4.1
2186111,Ngunguru,13,NZ,1592144097,91,-35.62,174.5,283.71,1.79
1254390,Tiruchchendur,99,IN,1592144097,64,8.48,78.12,303.8,5.01
379252,Khartoum,51,SD,1592143997,16,15.55,32.53,314.15,3.6
964406,Port Shepstone,0,ZA,1592144097,43,-30.74,30.45,291.95,2.46
1495586,Parabel',100,RU,1592144097,80,58.7,81.48,281.45,7.66
1502422,Kosh-Agach,76,RU,1592144097,50,50,88.67,288.23,3.86
2012349,Krasnyy Chikoy,0,RU,1592143925,59,50.36,108.75,288.72,0.44
3141310,Rørvik,75,NO,1592144098,73,64.86,11.24,287.09,2.11
3407357,Araguaína,24,BR,1592144098,55,-7.19,-48.21,302.06,3.95
2386042,Kabo,36,CF,1592144098,39,7.7,18.63,307.86,0.72
5233053,Yankton,1,US,1592144096,68,42.87,-97.4,297.04,8.7
1783763,Jianning,100,CN,1592144098,83,27.83,113.15,302.15,3
5808079,Redmond,68,US,1592143935,88,47.67,-122.12,283.71,1.94
