City_ID,City_Name,Cloudiness (%),Country,Date,Humidity (%),Latitude,Longitude,Temperature (F),Wind Speed (mph)
6201424,Mataura,0,NZ,1592099435,71,-46.19,168.86,282.04,1.34
3874787,Punta Arenas,19,CL,1592099435,92,-53.15,-70.92,268.15,1
2236967,Soyo,0,AO,1592099436,89,-6.13,12.37,294.62,3.04
1648186,Bontang,100,ID,1592099396,71,0.13,117.5,302.06,1.12
6316343,Alta Floresta,0,BR,1592099436,76,-9.88,-56.09,295.79,1.32
4032243,Vaini,75,TO,1592099436,64,-21.2,-175.2,297.15,6.2
546105,Nikolskoye,0,RU,1592099436,76,59.7,30.79,284.26,1.67
2075265,Busselton,75,AU,1592099436,73,-33.65,115.33,289.82,5.46
502011,Revda,0,RU,1592099436,70,56.8,59.93,281.15,4
5106841,Albany,14,US,1592099437,55,42.6,-73.97,284.82,1.49
4013708,Ciudad Juárez,40,MX,1592099425,11,31.73,-106.48,306.15,8.7
5850554,Makakilo City,1,US,1592099437,38,21.35,-158.09,304.15,6.2
6165406,Thompson,75,CA,1592099437,28,55.74,-97.86,293.15,2.1
5848280,Kapaa,20,US,1592099437,58,22.08,-159.32,302.15,7.2
2206874,Waipawa,0,NZ,1592099437,71,-41.41,175.52,285.37,2.1
3833367,Ushuaia,20,AR,1592099230,91,-54.8,-68.3,273.15,2.1
219414,Basoko,36,CD,1592099391,92,1.24,23.62,294.55,0.6
3414079,Olafsvik,100,IS,1592099438,86,64.89,-23.71,280.27,8.21
1819729,Hong Kong,73,HK,1592099398,96,22.29,114.16,300.93,0.45
2185329,Otane,0,NZ,1592099438,72,-39.88,176.63,283.71,1.47
4928096,West Lafayette,1,US,1592099438,38,40.43,-86.91,297.15,5.7
934479,Grand Gaube,4,MU,1592099438,89,-20.01,57.66,294.26,2.24
2738381,Lata,97,PT,1592099438,90,40.16,-8.33,288.71,0.33
1624041,Ternate,100,ID,1592099439,80,0.8,127.4,299.74,1.53
3471451,Arraial do Cabo,0,BR,1592099439,84,-22.97,-42.03,296.97,1.88
4020109,Atuona,58,PF,1592099439,79,-9.8,-139.03,300.22,8.77
964420,Port Elizabeth,98,ZA,1592099161,87,-33.92,25.57,282.15,2.1
4513583,Hamilton,1,US,1592099161,72,39.18,-84.53,293.15,3.25
2123979,Kuril'sk,97,RU,1592099439,91,45.23,147.88,285.12,3.03
108410,Riyadh,1,SA,1592099439,26,24.69,46.72,301.15,1.5
2297810,Mumford,96,GH,1592099440,87,5.26,-0.76,298.81,3.16
1242110,Kalmunai,14,LK,1592099440,74,7.42,81.82,301.5,1.27
2208248,Kaitangata,0,NZ,1592099440,59,-46.28,169.85,280.37,1.34
5122534,Jamestown,1,US,1592099440,46,42.1,-79.24,285.15,3.1
2155415,New Norfolk,81,AU,1592099275,69,-42.78,147.06,287.04,1.79
5577158,Fort Morgan,1,US,1592099266,29,40.25,-103.8,298.15,2.6
2063042,Port Hedland,2,AU,1592099350,41,-20.32,118.57,299.15,7.2
2136825,Isangel,90,VU,1592099441,78,-19.55,169.27,299.15,4.1
2020838,Lensk,53,RU,1592099441,60,60.73,114.93,289.38,1.21
3443061,Chui,1,UY,1592099441,66,-33.7,-53.46,279.26,4.7
2412408,Nioro,19,GM,1592099441,65,13.35,-15.75,300.45,3.11
4030556,Rikitea,100,PF,1592099441,84,-23.12,-134.97,297.56,6
3366880,Hermanus,0,ZA,1592099441,47,-34.42,19.23,285.84,3.95
6255012,Flinders,0,AU,1592099442,58,-34.58,150.86,293.15,6.26
5882953,Aklavik,75,CA,1592099380,36,68.22,-135.01,297.15,4.6
6185377,Yellowknife,75,CA,1592099161,39,62.46,-114.35,293.15,7.7
2127060,Arman',0,RU,1592099442,56,59.7,150.17,288.33,3.32
5880054,Barrow,90,US,1592099442,75,71.29,-156.79,278.15,2.6
6053446,Lewisporte,90,CA,1592099443,72,49.25,-55.05,291.15,4.6
1491230,Sovetskiy,93,RU,1592099443,58,61.36,63.58,280.81,4.08
5282297,Bethel,1,US,1592099272,47,41.37,-73.41,287.59,3.6
3424607,Tasiilaq,100,GL,1592099443,86,65.61,-37.64,277.15,5.1
3932145,Pisco,90,PE,1592099443,82,-13.7,-76.22,291.15,1.5
3831208,Qaanaaq,0,GL,1592099341,66,77.48,-69.36,278.43,2.64
3652764,Puerto Ayora,53,EC,1592099444,89,-0.74,-90.35,295.37,3.13
2264557,Ponta do Sol,20,PT,1592099444,72,32.67,-17.1,292.15,1.5
934322,Mahébourg,40,MU,1592099444,94,-20.41,57.7,295.15,2.1
2181625,Te Anau,0,NZ,1592099444,61,-45.42,167.72,284.3,2.2
1071296,Antalaha,24,MG,1592099445,83,-14.9,50.28,292.92,4.28
1645528,Denpasar,20,ID,1592099445,94,-8.65,115.22,302.15,5.7
3369157,Cape Town,20,ZA,1592099346,81,-33.93,18.42,283.71,3.1
3421319,Nuuk,100,GL,1592099408,91,64.18,-51.72,277.15,11.8
2110227,Butaritari,95,KI,1592099445,67,3.07,172.79,301.78,4.27
5847411,Kahului,20,US,1592099446,45,20.89,-156.47,303.15,12.3
1637001,Biak,33,ID,1592099446,72,-0.91,122.88,301.3,2.63
1494331,Pospelikha,99,RU,1592099446,61,51.95,81.77,292.52,6.77
625144,Minsk,75,BY,1592099180,87,53.9,27.57,285.15,6
5364271,Laguna,1,US,1592099447,36,38.42,-121.42,297.15,4.6
1244926,Hambantota,20,LK,1592099447,100,6.12,81.12,299.15,2.1
3386213,Touros,93,BR,1592099342,100,-5.2,-35.46,297.15,1.5
3374083,Bathsheba,40,BB,1592099447,74,13.22,-59.52,300.15,6.7
1795874,Shaoguan,100,CN,1592099447,79,24.8,113.58,302.88,1.06
240210,Birao,0,CF,1592099447,73,10.28,22.79,298.46,2.98
3671450,Inírida,100,CO,1592099156,90,3.87,-67.92,297.1,0.11
100926,Umluj,0,SA,1592099448,41,25.02,37.27,301.72,4.25
3137469,Sørland,100,NO,1592099448,93,67.67,12.69,284.15,2.1
3466165,Cidreira,90,BR,1592099448,61,-30.18,-50.21,285.07,7.22
3430863,Mar del Plata,0,AR,1592099443,64,-38,-57.56,278.15,6.2
515805,Oktyabr'skoye,75,RU,1592099448,93,43.06,44.74,289.15,3
2755485,Goedereede,71,NL,1592099449,86,51.82,3.98,291.48,3.19
2112802,Hasaki,75,JP,1592099449,100,35.73,140.83,295.93,1
3416888,Grindavik,90,IS,1592099449,87,63.84,-22.43,280.15,6.2
2109701,Auki,43,SB,1592099450,67,-8.77,160.7,303.56,1.32
2019135,Nizhniy Kuranakh,83,RU,1592099450,60,58.84,125.49,290.5,1.96
172515,Abu Samrah,0,SY,1592099450,44,35.3,37.18,291.09,1.81
5515743,Guymon,1,US,1592099451,14,36.68,-101.48,307.15,8.2
2068110,Kununurra,0,AU,1592099451,19,-15.77,128.73,302.15,3.1
2093846,Kiunga,94,PG,1592099451,70,-6.12,141.29,303.34,1.59
2123278,Mil'kovo,0,RU,1592099451,37,54.72,158.62,292.45,0.63
5975004,High Level,75,CA,1592099194,57,58.52,-117.14,297.15,3.1
2018069,Peleduy,100,RU,1592099452,92,59.63,112.74,284.69,1.85
964432,Port Alfred,79,ZA,1592099452,75,-33.59,26.89,284.26,1.34
6137462,Saint-Augustin,79,CA,1592099453,64,51.23,-58.65,283.05,6.21
2121909,Poronaysk,74,RU,1592099453,62,49.22,143.12,288.4,1.39
3444199,Puerto Suárez,75,BO,1592099453,93,-18.95,-57.8,295.65,1.89
1162959,Umarkot,100,PK,1592099453,60,25.36,69.74,304.07,5.42
1700966,Maribong,100,PH,1592099453,73,11.1,122.53,301.69,3.31
3883457,Lebu,90,CL,1592099453,74,-37.62,-73.65,281.36,2.62
5864145,Homer,1,US,1592099187,51,59.64,-151.55,289.15,6.2
3385077,Conde,1,BR,1592099454,88,-7.26,-34.91,298.15,2.6
770425,Janów Lubelski,75,PL,1592099454,100,50.71,22.41,290.93,3.6
6170031,Tuktoyaktuk,75,CA,1592099454,55,69.45,-133.04,289.15,6.7
2522131,Alcázar de San Juan,72,ES,1592099454,56,39.39,-3.21,287.59,1.67
1728675,Balabac,100,PH,1592099455,71,7.99,117.06,302.66,4.5
3374210,São Filipe,34,CV,1592099411,82,14.9,-24.5,297.49,4.84
1015776,Bredasdorp,0,ZA,1592099455,71,-34.53,20.04,286.15,2.88
3491355,Black River,40,JM,1592099455,83,18.03,-77.85,300.15,1
3405061,Boqueirão,7,BR,1592099455,96,-7.5,-36.13,293.53,1.84
2126123,Chokurdakh,4,RU,1592099344,35,70.63,147.92,292.83,1.76
2374583,Bubaque,98,GW,1592099456,82,11.28,-15.83,300.41,6.92
3361934,Saldanha,0,ZA,1592099456,50,-33.01,17.94,284.83,2.09
5972762,Hay River,75,CA,1592099456,70,60.82,-115.8,282.15,3.6
5866583,Saint Paul Harbor,1,US,1592099456,58,57.79,-152.41,288.15,6.7
102527,Sakakah,0,SA,1592099456,11,29.97,40.21,300.15,2.15
2446796,Bilma,70,NE,1592099456,16,18.69,12.92,305.36,0.62
1863997,Fukuechō,75,JP,1592099457,100,32.69,128.84,297.15,8.2
2315417,Inongo,0,CD,1592099457,81,-1.95,18.27,294.21,1.23
2108502,Honiara,20,SB,1592099457,63,-9.43,159.95,306.15,4.6
2172797,Cairns,90,AU,1592099322,88,-16.92,145.77,298.71,1.5
145724,Lucapa,0,AO,1592099457,48,-8.42,20.74,289.57,2.42
2016910,Severobaykal'sk,82,RU,1592099458,87,55.65,109.32,282.5,1.18
3445026,Vila Velha,0,BR,1592099373,83,-20.33,-40.29,296.15,3.1
3985168,San Patricio,75,MX,1592099355,78,19.22,-104.7,301.15,5.1
5557293,Sitka,90,US,1592099458,87,57.05,-135.33,285.15,2.1
4920986,Griffith,1,US,1592099298,76,41.53,-87.42,288.15,3.78
1255621,Srīsailain,100,IN,1592099459,77,16.08,78.87,298.51,6.84
686090,Asău,16,RO,1592099459,89,46.43,26.4,288.71,2.33
3994535,Ocampo,0,MX,1592099459,49,21.65,-101.5,289.1,6.55
3893629,Coquimbo,0,CL,1592099459,66,-29.95,-71.34,286.15,2.6
2396853,Omboué,17,GA,1592099459,92,-1.57,9.26,295.17,3.16
3221033,Basse,100,DE,1592099459,88,52.55,9.51,292.15,4.6
3440777,Rocha,5,UY,1592099459,70,-34.48,-54.33,279.05,4.42
3466704,Castro,100,BR,1592099460,95,-24.79,-50.01,287.88,1.56
1267390,Kavaratti,100,IN,1592099460,74,10.57,72.64,302.91,10.67
2038541,Baiquan,100,CN,1592099460,91,47.58,126.08,287.24,8.09
2126199,Cherskiy,0,RU,1592099460,40,68.75,161.3,292.93,5.43
1651810,Airai,0,TL,1592099460,57,-8.93,125.41,295.03,2.76
2180815,Tuatapere,0,NZ,1592099460,71,-46.13,167.68,282.04,1.34
1006984,East London,91,ZA,1592099460,36,-33.02,27.91,286.69,3.15
2156643,Mount Gambier,75,AU,1592099460,100,-37.83,140.77,284.15,6.2
2206939,Bluff,0,NZ,1592099342,73,-46.6,168.33,282.04,3.31
2177069,Ballina,90,AU,1592099461,83,-28.87,153.57,295.15,5.1
5855927,Hilo,90,US,1592099292,57,19.73,-155.09,300.15,6.2
1283711,Bāglung,0,NP,1592099461,67,28.27,83.59,298.03,1.32
3877918,Ovalle,0,CL,1592099351,30,-30.6,-71.2,289.05,0.39
2163355,Hobart,100,AU,1592099462,50,-42.88,147.33,287.15,7.2
4021858,Guerrero Negro,0,MX,1592099462,68,27.98,-114.06,292.48,9.65
1608451,Nan,75,TH,1592099462,88,18.83,100.67,300.15,1
371745,Kutum,0,SD,1592099462,30,14.2,24.67,295.36,1.16
2611738,Thyborøn,97,DK,1592099462,74,56.7,8.21,287.59,0.45
1254709,Tezu,89,IN,1592099462,79,27.92,96.17,298.96,0.51
3450188,Santa Isabel,0,BR,1592099463,82,-23.32,-46.22,292.15,1.5
6111862,Port Hardy,20,CA,1592099463,71,50.7,-127.42,287.15,8.2
2074865,Carnarvon,0,AU,1592099354,38,-24.87,113.63,291.78,9.09
1735106,George Town,20,MY,1592099436,83,5.41,100.34,301.15,2.44
2189343,Kaeo,95,NZ,1592099463,3,-35.1,173.78,288.15,2.24
2034400,Tongliao,0,CN,1592099463,27,43.61,122.27,298.57,9.71
902620,Mwinilunga,0,ZM,1592099464,71,-11.74,24.43,283.34,1.98
3985710,Cabo San Lucas,75,MX,1592099380,18,22.89,-109.91,306.15,5.7
2171099,Codrington,100,AU,1592099464,83,-38.27,141.97,285.02,8.62
3354077,Opuwo,0,NA,1592099464,46,-18.06,13.84,283.51,3.51
3372707,Ribeira Grande,9,PT,1592099464,72,38.52,-28.7,289.61,7
3372964,Lagoa,46,PT,1592099464,72,39.05,-27.98,289.17,6.29
2986732,Ploemeur,95,FR,1592099464,93,47.73,-3.43,287.59,5.7
4167601,Palm Valley,100,US,1592099465,82,30.18,-81.39,298.71,1.34
2963295,Killybegs,100,IE,1592099465,96,54.63,-8.45,284.26,2.71
2070998,Geraldton,9,AU,1592099465,67,-28.77,114.6,288.15,6.2
3723593,Jérémie,100,HT,1592099465,72,18.65,-74.12,300.16,0.57
2122605,Okhotsk,0,RU,1592099465,62,59.38,143.3,287.77,3.29
5367788,Lompoc,0,US,1592099443,63,34.64,-120.46,290.15,8.7
2094027,Kieta,62,PG,1592099466,69,-6.22,155.63,302.76,2.44
6067472,Marystown,100,CA,1592099466,98,47.17,-55.15,285.92,2.59
3448903,São João da Barra,0,BR,1592099407,87,-21.64,-41.05,295.77,3.47
2028164,Deputatsky,89,RU,1592099466,40,69.3,139.9,291.87,3.01
3984997,San Quintín,0,MX,1592099398,68,30.48,-115.95,292.17,8.52
6162949,Terrace,90,CA,1592099466,67,54.52,-128.6,287.15,3.6
4035715,Avarua,99,CK,1592099466,57,-21.21,-159.78,297.15,3.6
1492566,Severo-Yeniseyskiy,100,RU,1592099467,89,60.37,93.04,288.93,3.55
5391959,San Francisco,20,US,1592099213,48,37.77,-122.42,292.15,7.7
1501377,Kungurtug,0,RU,1592099467,32,50.6,97.52,295.52,0.38
1513087,Nurota,25,UZ,1592099467,43,40.56,65.69,295.15,3.1
1633419,Padang,7,ID,1592099467,57,-0.95,100.35,303.01,0.35
1282256,Hithadhoo,100,MV,1592099467,70,-0.6,73.08,303.05,7.32
1507390,Dikson,100,RU,1592099352,85,73.51,80.55,275.04,4.16
1785036,Zhangye,38,CN,1592099468,23,38.93,100.45,298.45,0.71
2123814,Leningradskiy,92,RU,1592099366,56,69.38,178.42,287.34,0.98
1788852,Xining,100,CN,1592099468,50,36.62,101.77,288.3,0.74
2065594,Mount Isa,0,AU,1592099468,21,-20.73,139.5,299.15,5.7
1106677,Bambous Virieux,40,MU,1592099340,94,-20.34,57.76,295.15,2.1
3883167,Linares,16,CL,1592099468,82,-35.85,-71.6,278.43,1.56
1516048,Khovd,69,MN,1592099468,22,48.01,91.64,295.09,0.58
1337612,Dhidhdhoo,21,MV,1592099365,77,6.88,73.1,302.32,7.88
3869716,Tocopilla,21,CL,1592099469,70,-22.09,-70.2,289.43,0.88
2122090,Pevek,100,RU,1592099469,97,69.7,170.31,278.21,2.76
986717,Kruisfontein,50,ZA,1592099469,57,-34,24.73,282.7,2.35
3693584,Pimentel,5,PE,1592099469,86,-6.84,-79.93,290.83,4.95
6179652,Weyburn,97,CA,1592099197,49,49.67,-103.85,298.15,10.73
567006,Davlekanovo,85,RU,1592099470,57,54.22,55.03,284.15,6
3628473,San Cristobal,100,VE,1592099470,89,7.77,-72.22,292.72,1.57
2063036,Port Lincoln,100,AU,1592099361,74,-34.73,135.87,289.08,9.87
1726449,Basco,0,PH,1592099470,77,20.45,121.97,302.45,6.2
3901903,Uyuni,0,BO,1592099470,65,-20.46,-66.83,279.63,2.32
2522325,Agüimes,20,ES,1592099470,68,27.91,-15.45,293.15,4.6
6148373,Sioux Lookout,20,CA,1592099471,34,50.1,-91.92,292.15,3.1
3465769,Conceição da Barra,0,BR,1592099471,91,-18.59,-39.73,295.47,2.25
3893726,Constitución,0,CL,1592099355,56,-35.33,-72.42,282.36,2.81
1214488,Meulaboh,57,ID,1592099471,76,4.14,96.13,301.12,1.35
2015306,Tiksi,100,RU,1592099340,96,71.69,128.87,273.38,2.92
5546220,Saint George,1,US,1592099181,4,37.1,-113.58,305.15,11.8
1800163,Nanchang,100,CN,1592099472,64,28.68,115.88,305.02,5.04
2137773,Vao,35,NC,1592099472,79,-22.67,167.48,295.56,11.12
605155,Kiruna,100,SE,1592099472,50,67.86,20.23,287.15,0.5
777019,Vardø,100,NO,1592099472,69,70.37,31.11,281.76,4.2
371466,Leer,0,SS,1592099472,80,8.3,30.14,296.67,1.96
3573374,The Valley,40,AI,1592099472,74,18.22,-63.06,302.15,4.1
293842,Kiryat Gat,2,IL,1592099343,80,31.61,34.76,294.82,0.82
1253628,Ginda,0,IN,1592099472,41,30.69,78.49,296.58,0.48
5147097,Berea,40,US,1592099473,48,41.37,-81.85,289.15,5.7
3430443,Necochea,0,AR,1592099473,79,-38.55,-58.74,275.93,3.13
778362,Øksfjord,98,NO,1592099473,62,70.24,22.35,287.15,7.2
2179103,Whitianga,75,NZ,1592099473,77,-36.83,175.7,289.82,2.68
2094342,Kavieng,43,PG,1592099473,67,-2.57,150.8,303.23,3.65
2440371,Ouallam,31,NE,1592099473,36,14.32,2.09,305.76,4.12
3352593,Tsumeb,0,NA,1592099473,49,-19.23,17.72,281.45,4.26
3419842,Sisimiut,100,GL,1592099474,80,66.94,-53.67,276.05,4.96
1634614,Nabire,98,ID,1592099474,66,-3.37,135.48,301.93,0.29
2729907,Longyearbyen,75,SJ,1592099474,89,78.22,15.64,275.15,2.6
935215,Saint-Philippe,75,RE,1592099474,72,-21.36,55.77,293.15,3.6
3680880,Herveo,99,CO,1592099474,90,5.08,-75.17,286.06,1.19
6453331,Kristiansund,32,NO,1592099474,77,63.11,7.73,288.15,3.1
2654970,Brae,56,GB,1592099474,93,60.4,-1.35,285.15,1.5
4033557,Tautira,20,PF,1592099474,62,-17.73,-149.15,304.15,2.1
2138555,Poum,1,NC,1592099475,74,-20.23,164.02,297.58,6.87
60019,Eyl,85,SO,1592099475,57,7.98,49.82,300.9,9.96
6096551,Pangnirtung,52,CA,1592099475,86,66.15,-65.71,274.58,0.91
3698359,Chicama,9,PE,1592099393,80,-7.84,-79.15,291.16,2.09
1259385,Port Blair,98,IN,1592099475,80,11.67,92.75,302.13,6.33
4231997,Avera,1,US,1592099475,64,33.19,-82.53,297.15,1.5
3981391,Tomatlán,0,MX,1592099475,74,19.93,-105.25,299.98,1.99
3836669,San Rafael,69,AR,1592099476,50,-34.62,-68.33,280.63,2.22
3452599,Posse,70,BR,1592099476,52,-14.09,-46.37,294.57,2.43
5989403,Kapuskasing,40,CA,1592099476,31,49.42,-82.43,289.15,2.1
1649150,Bengkulu,2,ID,1592099384,67,-3.8,102.27,300.76,0.66
2264923,Peniche,79,PT,1592099476,90,39.36,-9.38,287.59,1.35
3418910,Upernavik,0,GL,1592099476,89,72.79,-56.15,274.01,2.45
4034551,Faanui,26,PF,1592099371,76,-16.48,-151.75,300.37,3.85
1283679,Banepā,40,NP,1592099477,88,27.63,85.52,296.15,0.38
950709,Swellendam,0,ZA,1592099477,71,-34.02,20.44,286.15,1.66
7647007,Bariloche,40,AR,1592099477,86,-41.15,-71.31,274.15,2.1
3430545,Morón,0,AR,1592099477,60,-34.65,-58.62,280.37,1.5
2071860,Esperance,32,AU,1592099477,87,-33.87,121.9,286.15,7.2
2022572,Khatanga,0,RU,1592099477,45,71.97,102.5,283.68,5.39
4218882,Rincon,20,US,1592099429,73,32.3,-81.24,298.15,2.6
4031637,Lavrentiya,99,RU,1592099478,75,65.58,-171,281.52,3.63
5294810,Flagstaff,1,US,1592099478,9,35.2,-111.65,295.37,7.7
6089245,Norman Wells,75,CA,1592099478,27,65.28,-126.83,297.15,9.8
1651103,Atambua,0,ID,1592099478,50,-9.11,124.89,301.5,1.93
5778755,Murray,1,US,1592099410,28,40.67,-111.89,294.82,3.1
2121385,Severo-Kuril'sk,100,RU,1592099478,92,50.68,156.12,278,9.76
2618795,Klaksvík,39,FO,1592099479,93,62.23,-6.59,282.15,2.1
5859699,College,75,US,1592099479,45,64.86,-147.8,297.04,5.7
3421765,Nanortalik,100,GL,1592099479,91,60.14,-45.24,277.56,4.83
5924351,Clyde River,1,CA,1592099375,100,70.47,-68.59,271.15,4.1
1515029,Ulaangom,55,MN,1592099479,29,49.98,92.07,296.18,2.19
5294167,Eloy,1,US,1592099479,7,32.76,-111.55,310.37,5.7
3899695,Ancud,90,CL,1592099356,100,-41.87,-73.82,281.48,6.2
1801792,Luoyang,36,CN,1592099480,18,34.68,112.45,306.1,5.3
3905792,San Borja,35,BO,1592099480,93,-14.82,-66.85,295.47,1.64
2630299,Hofn,100,IS,1592099480,84,64.25,-15.21,280.48,2.75
3585473,Izalco,100,SV,1592099480,97,13.74,-89.67,296.48,0.45
1524243,Georgiyevka,0,KZ,1592099480,37,43.04,74.71,295.15,5
3471896,Aquidauana,21,BR,1592099480,85,-20.47,-55.79,294.86,2.02
705198,Kompaniyivka,37,UA,1592099481,97,48.25,32.21,290.82,3.27
6145951,Shellbrook,90,CA,1592099481,39,53.22,-106.4,300.15,8.2
6541905,Nola,0,IT,1592099481,79,40.92,14.53,291.48,1.83
934649,Cap Malheureux,5,MU,1592099481,89,-19.98,57.61,294.26,2.24
2169535,Dalby,100,AU,1592099481,98,-27.18,151.27,291.48,0.89
3464008,Esmeraldas,0,BR,1592099482,68,-19.76,-44.31,292.15,1
921786,Mitsamiouli,0,KM,1592099482,67,-11.38,43.28,298.8,5.14
2038120,Chaoyang,0,CN,1592099482,26,41.57,120.46,299.64,7.64
2032201,Bulgan,0,MN,1592099482,39,48.81,103.53,293.25,2.23
5126209,Mastic Beach,1,US,1592099482,52,40.77,-72.85,291.15,3.1
779330,Kautokeino,45,NO,1592099483,48,69.01,23.04,288.91,2.24
3531368,Celestún,0,MX,1592099483,80,20.87,-90.4,299.85,3.75
5380437,Pacific Grove,1,US,1592099221,48,36.62,-121.92,291.15,4.1
5354943,Half Moon Bay,5,US,1592099312,48,37.46,-122.43,293.15,6.7
1789647,Xichang,100,CN,1592099483,69,27.9,102.26,295.04,0.35
5914132,Campbell River,75,CA,1592099483,67,50.02,-125.24,287.59,2.6
2077895,Alice Springs,90,AU,1592099184,44,-23.7,133.88,289.15,7.7
1054329,Vangaindrano,94,MG,1592099484,83,-23.35,47.6,291.98,5.28
3336588,Ørsta,91,NO,1592099484,71,62.2,6.13,288.15,1.34
2134814,Sola,95,VU,1592099484,81,-13.88,167.55,299.65,11.96
5870133,Nome,1,US,1592099484,48,64.5,-165.41,293.71,7.2
70979,Sayyan,95,YE,1592099484,55,15.17,44.32,289.51,0.16
650769,Kristinestad,0,FI,1592099484,63,62.27,21.38,284.81,0.59
4032420,Neiafu,75,TO,1592099485,69,-18.65,-173.98,297.15,2.6
2027296,Aykhal,90,RU,1592099485,100,66,111.5,278.15,3
2036427,Jinzhou,0,CN,1592099485,23,41.11,121.14,301.44,7.32
3868707,Valdivia,90,CL,1592099485,100,-39.81,-73.25,275.15,1
2127202,Anadyr,12,RU,1592099485,51,64.75,177.48,288.15,10
4535823,Elk City,1,US,1592099485,27,35.41,-99.4,305.15,5.7
3860443,Comodoro Rivadavia,100,AR,1592099290,59,-45.87,-67.5,280.15,4.6
2139521,Noumea,90,NC,1592099486,57,-22.28,166.46,299.15,4.1
4565090,Guánica,85,PR,1592099486,75,17.97,-66.91,301.48,3.2
2013216,Vysokogornyy,98,RU,1592099486,59,50.12,139.15,287.66,0.78
53372,Oodweyne,94,SO,1592099487,65,9.41,45.06,294.8,6.01
1504382,Kargasok,74,RU,1592099487,51,59.06,80.86,284.66,8.44
3381428,Iracoubo,56,GF,1592099487,86,5.48,-53.2,298,0.5
1524606,Derzhavīnsk,1,KZ,1592099487,53,51.1,66.32,286.67,8.32
2303611,Esim,65,GH,1592099487,88,4.87,-2.24,298.43,2.9
191038,Kitui,100,KE,1592099487,93,-1.37,38.01,289.72,2.68
2160735,Lakes Entrance,47,AU,1592099487,61,-37.88,147.98,288.71,0.89
5153207,Elyria,95,US,1592099227,67,41.37,-82.11,288.71,5.57
4031574,Provideniya,97,RU,1592099488,79,64.38,-173.3,281.7,2.64
2249554,Koungheul,48,SN,1592099488,43,13.98,-14.8,304.81,4.12
3948448,Acolla,6,PE,1592099488,78,-11.73,-75.55,279.89,1.81
967106,Oudtshoorn,0,ZA,1592099488,81,-33.59,22.2,282.15,1
3939761,Hualmay,24,PE,1592099489,85,-11.1,-77.61,289.84,3.78
5946820,Edson,90,CA,1592099486,87,53.58,-116.44,287.15,4.1
286621,Salalah,75,OM,1592099489,89,17.02,54.09,302.15,1
5503914,Fallon,40,US,1592099489,16,39.47,-118.78,294.15,5.1
3421719,Narsaq,100,GL,1592099388,87,60.92,-46.05,279.15,3.6
1252795,Yanam,100,IN,1592099490,73,16.73,82.22,302.74,3.47
5110365,Broome,1,US,1592099490,61,42.25,-75.83,283.71,2.6
1529651,Altay,100,CN,1592099490,21,47.87,88.12,296.33,1.35
339551,Dejen,62,ET,1592099490,87,10.17,38.13,286.6,1.33
2274895,Monrovia,75,LR,1592099490,94,6.3,-10.8,296.15,2.6
1512019,Aksarka,98,RU,1592099491,62,66.56,67.8,282.3,7.42
2527087,Tiznit Province,0,MA,1592099491,73,29.58,-9.5,289.23,0.45
2467813,Rafrāf,20,TN,1592099491,77,37.19,10.18,294.15,3.6
4033375,Tevaitoa,28,PF,1592099491,75,-16.78,-151.5,300.64,3.76
321031,Bismil,40,TR,1592099491,76,37.85,40.67,288.15,2.1
1105726,Ekangala,0,ZA,1592099491,74,-25.7,28.75,273.71,0.96
4997130,Ingham,1,US,1592099491,50,42.6,-84.38,287.15,2.1
1254046,Tura,92,IN,1592099353,86,25.52,90.22,299.5,1.44
1792592,Tongren,97,CN,1592099492,84,27.72,109.19,300.61,1.99
6167817,Torbay,75,CA,1592099285,93,47.67,-52.73,291.48,5.1
3446098,Três Lagoas,0,BR,1592099492,65,-20.75,-51.68,294.74,1.8
3464724,Diamantino,20,BR,1592099406,57,-14.41,-56.45,297.89,2.22
3372760,Praia da Vitória,20,PT,1592099492,77,38.73,-27.07,288.15,3.58
1283285,Jumla,0,NP,1592099492,54,29.27,82.18,292.74,1.03
989921,Klerksdorp,0,ZA,1592099493,74,-26.85,26.67,273.93,1.02
2194098,Ahipara,66,NZ,1592099493,80,-35.17,173.17,288.66,4.45
3190813,Sisak,0,HR,1592099493,82,45.47,16.38,290.93,1.5
2541479,Nador,0,MA,1592099493,46,35.17,-2.93,295.15,3.6
3351663,Benguela,20,AO,1592099493,86,-12.58,13.41,292.62,1.28
5329649,Blythe,0,US,1592099494,3,33.61,-114.6,308.15,1.79
3393692,Itarema,86,BR,1592099494,86,-2.92,-39.92,298.26,3.58
5606000,Rupert,1,US,1592099494,44,42.62,-113.68,289.15,4.1
2017155,Saskylakh,74,RU,1592099494,49,71.92,114.08,282.34,3.29
2632287,Dalvik,40,IS,1592099494,66,65.97,-18.53,282.15,2.1
2015913,Suntar,19,RU,1592099494,58,62.14,117.63,288.68,3.31
878141,Madimba,20,TZ,1592099494,83,-10.4,40.33,296.15,7.7
920233,Chibombo,58,ZM,1592099495,85,-14.66,28.07,287,5.43
1695546,Pandan,100,PH,1592099495,77,14.05,124.17,302.37,3.43
1645133,Dumai,89,ID,1592099495,69,1.68,101.45,300.93,1.8
1504019,Kazanskoye,0,RU,1592099495,69,55.64,69.23,282.63,6.78
710935,Chaplynka,99,UA,1592099495,88,46.37,33.54,290.51,3.06
352733,Marsá Maţrūḩ,12,EG,1592099495,72,31.35,27.25,293.15,4.1
6113406,Prince Rupert,90,CA,1592099483,87,54.32,-130.32,284.15,1
2173911,Broken Hill,0,AU,1592099496,66,-31.95,141.43,285.15,5.7
2520709,Burriana,89,ES,1592099496,56,39.89,-0.09,292.59,0.89
3728097,Les Cayes,100,HT,1592099496,78,18.2,-73.75,299.41,1.5
5983720,Iqaluit,75,CA,1592099496,74,63.75,-68.51,276.15,4.6
1064258,Ikalamavony,8,MG,1592099496,85,-21.15,46.58,283.95,2.58
2062276,Roebourne,0,AU,1592099497,45,-20.78,117.13,299.28,7.62
3356343,Karasburg,0,NA,1592099497,50,-28.02,18.75,278.49,5.06
2410065,Blama,100,SL,1592099497,96,7.87,-11.34,296.63,0.97
158974,Issenye,89,TZ,1592099497,88,-2,34.33,290.89,1.19
2214827,Mizdah,0,LY,1592099497,27,31.45,12.98,297.67,4.4
3520161,Sabancuy,5,MX,1592099497,80,18.97,-91.18,299.82,3.66
2655288,Boddam,90,GB,1592099497,93,57.47,-1.78,285.15,1
1626542,Sorong,28,ID,1592099498,72,-0.88,131.25,301.5,2.35
3924872,Presidente Médici,2,BR,1592099498,92,-11.18,-61.9,295.86,1.56
2021188,Kurumkan,48,RU,1592099498,56,54.3,110.3,291.9,0.43
3372472,Vila Franca do Campo,20,PT,1592099498,82,37.72,-25.43,286.15,2.6
64814,Bandarbeyla,100,SO,1592099498,62,9.49,50.81,300.69,12.03
4285268,Bowling Green,40,US,1592099401,37,36.99,-86.44,301.15,3.53
2629833,Husavik,40,IS,1592099499,66,66.04,-17.34,282.15,2.1
1263776,Mangan,98,IN,1592099499,52,27.52,88.53,299.8,0.89
2384770,Mbaïki,100,CF,1592099499,90,3.87,17.99,294.65,0.07
935616,Le Port,0,RE,1592099499,77,-20.94,55.29,292.15,1.5
5391295,Salinas,1,US,1592099370,48,36.68,-121.66,292.15,5.1
1056899,Sambava,83,MG,1592099500,78,-14.27,50.17,293.99,6.05
1218612,Murgab,0,TM,1592099500,43,37.5,61.97,295.15,2.1
4297983,Lexington,1,US,1592099409,60,37.99,-84.48,295.15,3.6
962367,Richards Bay,0,ZA,1592099500,54,-28.78,32.04,285.26,2.33
1489822,Tegul'det,72,RU,1592099500,85,57.31,88.17,292.92,4.23
3675504,Manaure,100,CO,1592099500,72,11.78,-72.44,302.08,7.74
4944903,Nantucket,75,US,1592099500,82,41.28,-70.1,289.26,4.1
2132606,Samarai,0,PG,1592099500,81,-10.62,150.67,300.75,4.99
3452640,Porto Seguro,20,BR,1592099421,83,-16.45,-39.06,297.15,2.6
477940,Ust-Tsilma,34,RU,1592099501,67,65.44,52.15,282.61,3.77
923295,Zomba,88,MW,1592099501,94,-15.39,35.32,287.88,1.59
2015701,Taksimo,100,RU,1592099501,58,56.34,114.88,287.13,1.04
6145890,Shelburne,1,CA,1592099501,53,44.08,-80.2,284.15,2.1
3915350,Guayaramerín,41,BO,1592099501,95,-10.84,-65.36,295.79,0.93
1511057,Bakchar,83,RU,1592099502,86,57.02,82.07,286.07,4.28
302819,Patnos,0,TR,1592099502,56,39.23,42.86,282.36,1.99
2141714,Bourail,39,NC,1592099502,61,-21.57,165.48,298.32,2.9
503878,Pustoshka,64,RU,1592099502,78,56.34,29.37,284.87,4.76
1264976,Leh,4,IN,1592099502,49,34.17,77.58,281.98,2.69
2613939,Skagen,31,DK,1592099502,64,57.72,10.58,289.26,6.26
3357247,Gobabis,0,NA,1592099502,32,-22.45,18.97,277.15,2.1
964712,Plettenberg Bay,2,ZA,1592099503,41,-34.05,23.37,285.9,2.24
3386568,Tauá,9,BR,1592099503,79,-5.97,-40.3,295.5,4.27
2377457,Nouadhibou,56,MR,1592099410,39,20.93,-17.03,302.15,10.8
6355222,Yulara,0,AU,1592099503,47,-25.24,130.99,287.15,7.2
3393106,Paragominas,99,BR,1592099503,95,-2.97,-47.48,295.65,0.83
5861897,Fairbanks,90,US,1592099343,67,64.84,-147.72,297.04,4.6
2655819,Coldingham,90,GB,1592099504,96,55.89,-2.16,284.82,1.72
1809597,Gucheng,22,CN,1592099504,15,35.91,111.32,302.94,3.54
921906,Domoni,93,KM,1592099504,71,-12.26,44.53,298.08,6.51
1786538,Yining,100,CN,1592099504,65,29.04,114.56,304.97,1.34
481548,Troitsko-Pechorsk,99,RU,1592099505,76,62.71,56.2,281.93,4.26
5851349,Nānākuli,1,US,1592099505,38,21.39,-158.15,304.15,6.2
2206894,Hokitika,5,NZ,1592099505,62,-42.72,170.97,284.59,1.33
1490256,Talnakh,100,RU,1592099505,44,69.49,88.4,287.15,9
5388564,Rohnert Park,20,US,1592099505,55,38.34,-122.7,293.15,6.7
3141667,Roald,98,NO,1592099505,87,62.58,6.13,288.15,2.1
1507116,Dudinka,100,RU,1592099506,44,69.41,86.18,287.15,9
1628884,Sampit,72,ID,1592099506,70,-2.53,112.95,302.54,1.25
1850523,Tateyama,90,JP,1592099506,94,34.98,139.87,295.93,0.5
1508458,Chany,0,RU,1592099506,68,55.31,76.76,282.84,5.86
3389622,Santa Helena,48,BR,1592099506,97,-2.23,-45.3,295.93,0.52
2965402,Clonakilty,75,IE,1592099506,100,51.62,-8.87,285.37,3.6
556268,Ostrovnoy,23,RU,1592099506,58,68.05,39.51,287.56,8.14
751335,Bafra,100,TR,1592099506,88,41.57,35.91,290.15,2.41
2349431,Sabla,0,NG,1592099507,52,12.75,4.71,303.91,3.47
3566067,Camagüey,100,CU,1592099507,100,21.38,-77.92,295.15,1.5
778707,Mehamn,81,NO,1592099507,52,71.04,27.85,285.96,3.02
5911440,Burgeo,92,CA,1592099509,94,47.62,-57.62,283.15,0.84
3347019,Mossamedes,0,AO,1592099346,65,-15.2,12.15,293.5,2.22
3128174,Bermeo,75,ES,1592099509,93,43.42,-2.72,288.15,0.5
6166142,Thunder Bay,20,CA,1592099340,50,48.4,-89.32,287.15,2.6
4946620,Palmer,20,US,1592099316,50,42.16,-72.33,287.15,3.1
1266452,Methala,90,IN,1592099509,94,10.22,76.22,298.15,3.6
2214432,Nālūt,0,LY,1592099509,15,30.33,10.85,301.43,3.65
3129839,Aras,94,ES,1592099510,93,42.56,-2.36,285.15,1
1631637,Pemangkat,87,ID,1592099510,80,1.17,108.97,300.01,2.74
3468425,Cachoeiras de Macacu,0,BR,1592099510,64,-22.46,-42.65,295.44,1.6
1626895,Sinjai,28,ID,1592099510,78,-5.12,120.25,301.33,1.24
2121025,Srednekolymsk,0,RU,1592099510,32,67.45,153.68,297.08,2.83
547871,Kizema,4,RU,1592099510,72,61.11,44.83,282.07,1.55
2304548,Anloga,20,GH,1592099510,88,5.79,0.9,299.15,0.5
1529376,Korla,0,CN,1592099510,22,41.76,86.15,299.14,2.75
3557689,Guantánamo,75,CU,1592099511,78,20.14,-75.21,300.15,4.1
1729564,Bacolod City,100,PH,1592099511,71,10.67,122.95,302.93,3.41
665845,Suceviţa,1,RO,1592099511,10,47.78,25.72,293.15,2.23
2418437,Kouroussa,100,GN,1592099511,94,10.65,-9.88,295.67,1
1106643,Quatre Cocos,40,MU,1592099511,94,-20.21,57.76,295.15,2.1
1506268,Gornopravdinsk,32,RU,1592099511,73,60.05,69.9,280.96,5.54
1591474,Bac Lieu,99,VN,1592099512,74,9.29,105.72,303.19,5.75
4100525,Batesville,1,US,1592099512,78,35.77,-91.64,299.15,1.1
2392087,Porto-Novo,40,BJ,1592099512,83,6.5,2.6,300.15,3.6
2514334,Madridejos,75,ES,1592099512,56,39.47,-3.53,289.26,3.52
3388847,São Félix do Xingu,0,BR,1592099512,88,-6.64,-51.99,295.01,0.98
2123836,Lazarev,100,RU,1592099512,95,52.23,141.51,277.74,6.54
6111867,Port Hawkesbury,75,CA,1592099512,100,45.62,-61.35,286.15,1
777682,Skjervøy,6,NO,1592099513,75,70.03,20.97,283.46,2.66
2240449,Luanda,75,AO,1592099176,83,-8.84,13.23,296.15,1.5
3408368,Acaraú,91,BR,1592099513,84,-2.89,-40.12,298.8,3.98
3451138,Rio Grande,0,BR,1592099318,70,-32.03,-52.1,279.82,0.89
3838859,Río Gallegos,43,AR,1592099451,92,-51.62,-69.22,272.15,1.5
2120048,Ust-Nera,80,RU,1592099513,31,64.57,143.2,293.68,0.93
2019912,Mogocha,81,RU,1592099513,50,53.73,119.77,288.25,5.47
1794209,Simao,100,CN,1592099514,86,22.79,100.97,296.06,1
1731090,Ambuclao,31,PH,1592099514,46,16.48,120.75,303.18,1.44
3570392,Le Vauclin,90,MQ,1592099514,83,14.55,-60.84,299.26,2.6
204953,Tshikapa,34,CD,1592099514,51,-6.42,20.8,294.5,0.67
5733351,Jackson,90,US,1592099293,48,42.42,-122.83,290.37,1.5
5025471,Elk River,1,US,1592099515,54,45.3,-93.57,292.04,4.71
1162094,Ziarat,0,PK,1592099515,30,30.38,67.73,291.88,0.62
300075,Suruç,40,TR,1592099515,39,36.98,38.42,291.15,1.5
2253354,Dakar,97,SN,1592099601,88,14.69,-17.44,299.15,3.1
2269142,Colares,56,PT,1592099237,85,38.8,-9.45,289.82,2.24
1714733,Dingle,100,PH,1592099515,72,11,122.67,302.12,3.56
2108857,Gizo Government Station,37,SB,1592099516,70,-8.1,156.84,302.59,1.14
2643044,Margate,1,GB,1592099516,96,51.38,1.39,288.71,0.45
4036284,Alofi,99,NU,1592099510,53,-19.06,-169.92,298.15,7.2
2119640,Yablochnyy,40,RU,1592099516,55,47.17,142.07,291.15,2
3674569,Moñitos,100,CO,1592099516,90,8.25,-76.05,297.73,1.61
2291136,Bondoukou,29,CI,1592099517,96,8.03,-2.8,294.41,1.69
3175096,Laas,99,IT,1592099517,87,46.62,10.7,283.15,2.1
2640729,Oxford,0,GB,1592099374,87,51.75,-1.26,287.15,1
3401148,Cururupu,10,BR,1592099517,95,-1.83,-44.87,296.53,0.9
2122262,Palana,0,RU,1592099517,51,59.12,159.97,287.14,2.62
2191562,Dunedin,0,NZ,1592099517,55,-45.87,170.5,283.71,1.34
1855540,Naze,20,JP,1592099517,84,28.37,129.48,303.15,6.7
548442,Kirishi,0,RU,1592099517,66,59.45,32.02,284.26,2.01
2381972,Adrar,0,MR,1592099382,20,20.5,-10.07,307.35,7.56
4791259,Virginia Beach,40,US,1592099459,68,36.85,-75.98,293.15,3.1
1337607,Kudahuvadhoo,95,MV,1592099509,75,2.67,72.89,302.37,4.8
2312888,Mbanza-Ngungu,26,CD,1592099518,100,-5.25,14.87,291.19,2.12
1812256,Dongsheng,0,CN,1592099518,27,39.82,109.98,292.41,0.85
5955902,Fort Nelson,90,CA,1592099518,93,58.81,-122.7,286.15,1.5
1263752,Māngrol,100,IN,1592099518,75,21.12,70.12,303.57,3.39
3516171,Barra de Tecoanapa,100,MX,1592099519,76,16.52,-98.75,301.41,3.45
933313,Mokobeng,0,BW,1592099519,69,-23,27.67,277.67,1.06
4502687,Lindenwold,1,US,1592099519,42,39.82,-75,292.59,2.1
3374333,Praia,20,CV,1592099519,83,14.92,-23.51,299.15,3.1
3691954,Sechura,30,PE,1592099519,75,-5.56,-80.82,292.14,5.17
1214026,Sabang,97,ID,1592099519,77,5.89,95.32,301.61,4.18
4074736,Marshall,1,US,1592099519,49,34.38,-86.33,296.15,1.38
1344069,Contai,100,IN,1592099520,75,21.78,87.75,303.77,6.85
866062,Iskateley,100,RU,1592099520,82,67.68,53.15,279.07,7.28
933995,Souillac,40,MU,1592099520,94,-20.52,57.52,295.15,2.1
1630639,Pringsewu,10,ID,1592099520,75,-5.36,104.97,300.76,0.77
3448552,São Luiz Gonzaga,37,BR,1592099288,71,-28.41,-54.96,280.53,3.28
610864,Khani,75,GE,1592099520,93,41.96,42.96,292.15,3.6
3533462,Acapulco de Juárez,75,MX,1592099521,79,16.86,-99.89,302.15,4.1
5935804,Dawson Creek,20,CA,1592099521,55,55.77,-120.24,289.15,2.1
1176048,Jati,51,PK,1592099521,78,24.35,68.27,301.91,3.76
3121424,Gijón,89,ES,1592099235,62,43.54,-5.66,288.15,3.1
2146219,Hervey Bay,75,AU,1592099521,78,-25.3,152.85,298.71,6.7
2036933,Helong,0,CN,1592099521,33,42.54,129,298.29,5.82
2641434,Northam,17,GB,1592099521,98,51.03,-4.22,285.37,0.45
3694112,Paita,32,PE,1592099522,82,-5.09,-81.11,291.42,4.13
2294700,Tema,40,GH,1592099522,94,5.67,-0.02,298.15,2.1
3358416,Bethanien,0,NA,1592099522,54,-26.5,17.16,277.5,2.34
3421193,Paamiut,100,GL,1592099522,96,61.99,-49.67,276.42,7.37
1857260,Mikuni,75,JP,1592099522,88,36.22,136.15,297.15,4.6
1622318,Waingapu,64,ID,1592099522,69,-9.66,120.26,301.9,7
2521582,Arona,20,ES,1592099523,73,28.1,-16.68,294.26,5.1
1489656,Teya,100,RU,1592099523,88,60.38,92.63,289.85,2.8
2427637,Mongo,14,TD,1592099523,63,12.18,18.69,300.72,3.13
501847,Rochegda,7,RU,1592099523,70,62.8,43.25,282.84,1.75
1814093,Dali,100,CN,1592099523,83,25.7,100.18,292.59,1.46
1502073,Krasnosel'kup,100,RU,1592099523,87,65.7,82.47,282.83,8.53
1523662,Kachīry,48,KZ,1592099523,58,53.07,76.1,287.13,7.26
1810240,Gejiu,100,CN,1592099523,96,23.31,103.16,292.64,2.82
3894426,Coyhaique,90,CL,1592099401,93,-45.58,-72.07,276.15,2.6
2448083,Agadez,0,NE,1592099524,12,19.75,10.25,307.18,3.58
235826,Zemio,84,CF,1592099524,97,5.03,25.14,293.07,1.36
139817,Bushehr,0,IR,1592099524,48,28.97,50.84,304.15,8.7
110690,Faya,29,SA,1592099524,29,18.39,42.45,294.15,1.3
525426,Sobolevo,100,RU,1592099524,93,54.43,31.9,283.14,7.61
1279945,Jiuquan,57,CN,1592099525,23,39.74,98.52,297.99,3.51
3402648,Carutapera,31,BR,1592099400,93,-1.2,-46.02,297,1.69
5895424,Bay Roberts,91,CA,1592099525,1,47.6,-53.26,290.37,3.89
5528182,Pecos,1,US,1592099525,17,31.42,-103.49,306.15,9.3
3096003,Kluczbork,63,PL,1592099525,91,50.97,18.22,290.93,4.4
6319315,Fonte Boa,96,BR,1592099525,89,-2.5,-66.27,297.65,0.73
3388341,São Luís do Quitunde,75,BR,1592099525,100,-9.32,-35.56,295.15,4.6
608270,Shubarshi,0,KZ,1592099526,76,48.59,57.19,294.63,4.41
4845585,Westport,0,US,1592099526,57,41.14,-73.36,289.82,5.38
3663529,Manacapuru,0,BR,1592099526,94,-3.3,-60.62,298.15,1.37
161616,Balkanabat,0,TM,1592099526,12,39.51,54.37,305.42,5.62
2294665,Teshie,40,GH,1592099526,94,5.58,-0.11,298.15,2.1
3421982,Maniitsoq,100,GL,1592099527,92,65.42,-52.9,277.82,3.67
