City_ID,City_Name,Cloudiness (%),Country,Date,Humidity (%),Latitude,Longitude,Temperature (F),Wind Speed (mph)
4031574,Provideniya,99,RU,1592095744,81,64.38,-173.3,281.52,2.91
3421765,Nanortalik,100,GL,1592095745,92,60.14,-45.24,278.33,4.38
964432,Port Alfred,81,ZA,1592095745,87,-33.59,26.89,284.26,2.24
3466704,Castro,100,BR,1592095715,96,-24.79,-50.01,288.39,1.73
5962442,Goderich,100,CA,1592095745,72,43.75,-81.72,285.37,5.59
2112309,Katsuura,90,JP,1592095745,100,35.13,140.3,295.37,1.5
5847411,Kahului,20,US,1592095477,43,20.89,-156.47,304.15,12.3
1735106,George Town,20,MY,1592095746,94,5.41,100.34,300.15,1
3652764,Puerto Ayora,12,EC,1592095746,91,-0.74,-90.35,295.37,3.13
3471451,Arraial do Cabo,0,BR,1592095498,83,-22.97,-42.03,296.98,2.08
3698359,Chicama,30,PE,1592095746,79,-7.84,-79.15,291.3,2.35
2022572,Khatanga,0,RU,1592095746,47,71.97,102.5,283.14,5.1
3430443,Necochea,0,AR,1592095746,81,-38.55,-58.74,275.93,2.24
2630299,Hofn,100,IS,1592095746,82,64.25,-15.21,280.86,2.49
4032243,Vaini,75,TO,1592095747,73,-21.2,-175.2,296.15,5.7
2126123,Chokurdakh,6,RU,1592095747,36,70.63,147.92,292.1,2.22
3445026,Vila Velha,0,BR,1592095592,83,-20.33,-40.29,297.15,2.1
6170031,Tuktoyaktuk,75,CA,1592095747,59,69.45,-133.04,289.15,6.7
1795632,Shenjiamen,93,CN,1592095747,85,29.96,122.3,299.13,6
2158151,Melton,20,AU,1592095747,66,-37.68,144.58,287.04,4.6
1714733,Dingle,100,PH,1592095747,75,11,122.67,301.13,2.83
3665199,Ariquemes,0,BR,1592095535,90,-9.91,-63.04,296.66,1.14
3874787,Punta Arenas,22,CL,1592095748,85,-53.15,-70.92,269.15,1.5
1786538,Yining,98,CN,1592095748,74,29.04,114.56,302.92,1.19
6355222,Yulara,0,AU,1592095748,50,-25.24,130.99,285.15,5.1
4004293,Ixtapa,40,MX,1592095748,51,20.7,-105.2,303.15,6.2
5030005,Hibbing,1,US,1592095748,39,47.43,-92.94,290.15,5.1
777019,Vardø,100,NO,1592095748,73,70.37,31.11,281.73,3.53
210939,Luebo,75,CD,1592095748,71,-5.35,21.42,294.06,0.41
3115824,Muros,97,ES,1592095749,85,42.78,-9.06,288.15,0.89
2126682,Bilibino,17,RU,1592095749,44,68.05,166.44,293.39,4.09
408689,Lárdos,20,GR,1592095749,88,36.09,28.02,294.82,3.6
5848280,Kapaa,40,US,1592095749,58,22.08,-159.32,302.15,6.7
3407882,Altamira,84,BR,1592095749,71,-3.2,-52.21,298.97,1.73
1688781,City of San Pedro,75,PH,1592095749,70,14.35,121.02,304.26,3.1
5855927,Hilo,90,US,1592095750,58,19.73,-155.09,301.15,6.7
4036284,Alofi,100,NU,1592095545,57,-19.06,-169.92,298.15,6.7
2208248,Kaitangata,0,NZ,1592095750,70,-46.28,169.85,278.71,1.79
4035715,Avarua,97,CK,1592095750,53,-21.21,-159.78,297.15,3.6
2136697,Lakatoro,75,VU,1592095750,78,-16.1,167.42,300.15,4.1
2075265,Busselton,68,AU,1592095748,84,-33.65,115.33,286.48,5.71
1698289,Pundaguitan,100,PH,1592095750,71,6.37,126.17,302.28,2.05
3992842,Petatlán,20,MX,1592095750,62,17.52,-101.27,305.15,5.1
3356832,Henties Bay,0,NA,1592095751,33,-22.12,14.28,291.92,4.2
4030556,Rikitea,100,PF,1592095751,83,-23.12,-134.97,297.68,5.26
2120769,Talaya,90,RU,1592095751,35,61.38,152.75,292.88,1.77
2155415,New Norfolk,99,AU,1592095751,70,-42.78,147.06,285.93,3.58
3395981,Maceió,90,BR,1592095751,94,-9.67,-35.74,297.15,5.1
3393692,Itarema,95,BR,1592095751,84,-2.92,-39.92,298.91,4.02
964420,Port Elizabeth,100,ZA,1592095751,87,-33.92,25.57,282.15,2.1
5006233,Port Huron,75,US,1592095701,62,42.97,-82.42,286.48,7.2
2110227,Butaritari,29,KI,1592095752,67,3.07,172.79,301.72,4.27
1855612,Nara,75,JP,1592095752,88,34.69,135.8,299.15,0.5
3833367,Ushuaia,20,AR,1592095748,91,-54.8,-68.3,273.15,2.6
6185377,Yellowknife,75,CA,1592095748,34,62.46,-114.35,293.15,8.7
3696183,Iquitos,40,PE,1592095752,83,-3.75,-73.25,300.15,0.66
1106643,Quatre Cocos,22,MU,1592095753,89,-20.21,57.76,294.26,1.34
5380437,Pacific Grove,1,US,1592095673,48,36.62,-121.92,292.15,6.2
2074865,Carnarvon,0,AU,1592095753,41,-24.87,113.63,290.18,9.45
3366880,Hermanus,0,ZA,1592095753,48,-34.42,19.23,285.81,3.71
5106841,Albany,0,US,1592095530,55,42.6,-73.97,285.93,1.8
1513491,Yangi Marg`ilon,0,UZ,1592095753,37,40.43,71.72,294.15,4.1
1485849,Yetkul',20,RU,1592095753,80,54.82,61.59,278.15,3
4589446,North Myrtle Beach,90,US,1592095754,83,33.82,-78.68,294.15,6.7
3369157,Cape Town,40,ZA,1592095571,81,-33.93,18.42,283.15,3.6
6089245,Norman Wells,75,CA,1592095754,25,65.28,-126.83,296.15,8.7
2123814,Leningradskiy,73,RU,1592095754,52,69.38,178.42,287.91,1.11
3421719,Narsaq,100,GL,1592095754,93,60.92,-46.05,279.15,1.5
6201424,Mataura,0,NZ,1592095754,57,-46.19,168.86,280.83,1.5
3424607,Tasiilaq,100,GL,1592095755,86,65.61,-37.64,277.15,3.6
1605754,Taphan Hin,20,TH,1592095755,88,16.22,100.42,299.15,1.5
5110365,Broome,1,US,1592095755,53,42.25,-75.83,284.82,4.6
1525988,Ayagoz,0,KZ,1592095755,44,47.97,80.44,292.58,1.65
2322495,Tari,100,NG,1592095755,53,12.41,4.49,303.69,2.62
2641598,Newport,24,GB,1592095755,94,51.59,-3,287.59,2.48
1214488,Meulaboh,99,ID,1592095756,85,4.14,96.13,299.27,1.47
5122534,Jamestown,1,US,1592095504,44,42.1,-79.24,287.15,4.1
1651810,Airai,0,TL,1592095748,57,-8.93,125.41,294.11,2.71
2094342,Kavieng,26,PG,1592095756,69,-2.57,150.8,303.12,4.6
1006984,East London,77,ZA,1592095756,36,-33.02,27.91,287.06,3.43
3430863,Mar del Plata,20,AR,1592095677,65,-38,-57.56,278.71,6.2
2537881,Safi,0,MA,1592095756,75,32.3,-9.24,293.14,2.74
3114472,Pamplona,99,ES,1592095757,93,42.82,-1.64,285.37,1.62
3464724,Diamantino,70,BR,1592095757,55,-14.41,-56.45,299.46,2.35
2729907,Longyearbyen,75,SJ,1592095757,88,78.22,15.64,276.15,1.5
5563839,Fortuna,40,US,1592095757,63,40.6,-124.16,291.15,0.65
1520381,Ordzhonīkīdze,97,KZ,1592095757,59,52.44,61.74,283.41,4.7
582447,Almaznyy,3,RU,1592095757,93,48.04,40.05,290.15,1
4273680,Junction City,1,US,1592095757,31,39.03,-96.83,306.15,6.7
3985710,Cabo San Lucas,75,MX,1592095529,18,22.89,-109.91,307.15,6.2
5861897,Fairbanks,1,US,1592095533,33,64.84,-147.72,298.71,3.1
3641275,El Tocuyo,100,VE,1592095758,46,9.79,-69.79,305.15,5.1
3883457,Lebu,88,CL,1592095684,73,-37.62,-73.65,281.52,2.66
2123628,Magadan,0,RU,1592095758,58,59.57,150.8,287.21,2.39
3598787,Champerico,100,GT,1592095758,77,14.3,-91.92,300.86,2.27
546105,Nikolskoye,0,RU,1592095759,71,59.7,30.79,284.15,1.82
5697939,North Platte,1,US,1592095594,33,41.12,-100.77,304.15,7.7
1651591,Amahai,67,ID,1592095759,75,-3.33,128.92,301.15,0.45
2434584,Bousso,100,TD,1592095759,63,10.48,16.71,299.77,2.18
1835848,Seoul,75,KR,1592095734,69,37.57,126.98,298.15,3.1
3355672,Lüderitz,0,NA,1592095759,37,-26.65,15.16,286.15,2.6
4020109,Atuona,91,PF,1592095760,79,-9.8,-139.03,300.21,8.87
5880054,Barrow,75,US,1592095502,75,71.29,-156.79,279.15,3.52
3899695,Ancud,90,CL,1592095760,100,-41.87,-73.82,281.48,5.7
1819729,Hong Kong,59,HK,1592095660,78,22.29,114.16,302.04,7.15
5866583,Saint Paul Harbor,40,US,1592095748,48,57.79,-152.41,290.15,5.1
3893726,Constitución,9,CL,1592095684,59,-35.33,-72.42,282.5,2.77
4946620,Palmer,20,US,1592095659,44,42.16,-72.33,289.15,4.1
2180815,Tuatapere,0,NZ,1592095761,67,-46.13,167.68,282.87,2.42
2122090,Pevek,100,RU,1592095761,97,69.7,170.31,278.34,2.78
2381334,Atar,34,MR,1592095495,28,20.52,-13.05,306.89,5.23
5282297,Bethel,1,US,1592095761,44,41.37,-73.41,289.15,5.1
2029156,Sühbaatar,0,MN,1592095761,46,50.23,106.21,292.94,2.88
2274895,Monrovia,75,LR,1592095761,94,6.3,-10.8,296.15,2.1
3670218,San Andrés,90,CO,1592095761,88,12.58,-81.7,298.15,3.1
1701054,Marawi,100,PH,1592095762,77,8,124.29,302.04,0.89
158514,Kaliua,48,TZ,1592095762,57,-5.06,31.79,291.27,3.16
935215,Saint-Philippe,40,RE,1592095762,77,-21.36,55.77,292.15,2.6
3422683,Kangaatsiaq,100,GL,1592095762,90,68.31,-53.46,274.36,6.13
1283240,Kathmandu,40,NP,1592095571,100,27.72,85.32,294.15,0.42
3628473,San Cristobal,40,VE,1592095762,51,7.77,-72.22,302.15,8.7
4034551,Faanui,10,PF,1592095748,76,-16.48,-151.75,300.29,3.8
2618795,Klaksvík,44,FO,1592095762,93,62.23,-6.59,283.15,0.5
5321473,Winslow,1,US,1592095763,8,35.02,-110.7,305.15,13.9
2163355,Hobart,75,AU,1592095569,66,-42.88,147.33,286.15,4.1
3831208,Qaanaaq,0,GL,1592095763,66,77.48,-69.36,278.42,2.34
932035,Teyateyaneng,0,LS,1592095763,80,-29.15,27.75,270.35,1.02
1816751,Beidao,92,CN,1592095763,54,34.57,105.89,293.72,0.13
2088122,Port Moresby,75,PG,1592095763,83,-9.44,147.18,302.15,5.1
4021858,Guerrero Negro,0,MX,1592095763,65,27.98,-114.06,293.58,10.35
3838233,Salta,90,AR,1592095764,51,-24.79,-65.41,284.15,3.1
2024812,Dul'durga,29,RU,1592095764,52,50.68,113.59,292.07,5.17
2090021,Namatanai,99,PG,1592095764,70,-3.67,152.43,303.04,3.9
2640351,Peterhead,90,GB,1592095764,100,57.51,-1.8,284.26,1.5
2418437,Kouroussa,100,GN,1592095764,94,10.65,-9.88,295.78,1.23
2063036,Port Lincoln,15,AU,1592095764,72,-34.73,135.87,289.52,9.81
2152659,Port Macquarie,75,AU,1592095764,100,-31.43,152.92,289.15,7.7
3470137,Belmonte,20,BR,1592095765,78,-15.86,-38.88,298.15,3.1
6144312,Sept-Îles,20,CA,1592095644,37,50.2,-66.38,285.37,4.1
1786657,Yinchuan,100,CN,1592095765,19,38.47,106.27,296.76,1.87
2303611,Esim,86,GH,1592095765,88,4.87,-2.24,298.53,3.06
2359142,Kongoussi,4,BF,1592095765,39,13.33,-1.53,306.17,3.56
1591474,Bac Lieu,100,VN,1592095649,78,9.29,105.72,302.23,4.85
2017155,Saskylakh,72,RU,1592095766,52,71.92,114.08,281.68,3.13
3448903,São João da Barra,0,BR,1592095766,85,-21.64,-41.05,295.98,3.99
2258984,Kinkala,20,CG,1592095766,94,-4.36,14.76,294.15,1
503581,Pyaozerskiy,57,RU,1592095766,64,65.83,31.17,286.6,2.84
2128975,Nemuro,20,JP,1592095766,64,43.32,145.57,296.15,4.1
1691561,Rogongon,100,PH,1592095767,77,8.23,124.33,302.04,0.89
2396853,Omboué,3,GA,1592095767,92,-1.57,9.26,295.23,2.84
3423146,Ilulissat,100,GL,1592095767,65,69.22,-51.1,278.15,3.6
3416888,Grindavik,90,IS,1592095749,81,63.84,-22.43,281.15,4.1
5364271,Laguna,1,US,1592095767,33,38.42,-121.42,298.71,4.1
2393551,Kétou,39,BJ,1592095767,95,7.36,2.6,296.47,1.44
3351024,Caluquembe,4,AO,1592095767,55,-13.78,14.68,283.02,1.73
1791779,Wanning,100,CN,1592095768,92,18.8,110.4,298.14,0.51
2071860,Esperance,28,AU,1592095768,87,-33.87,121.9,285.15,6.7
933995,Souillac,15,MU,1592095768,89,-20.52,57.52,294.26,1.34
2164837,Goulburn,83,AU,1592095768,74,-34.75,149.72,284.82,9.18
2520645,Cabra,100,ES,1592095768,61,37.47,-4.44,290.37,1.05
1052373,Beira,75,MZ,1592095769,77,-19.84,34.84,294.15,5.1
3393106,Paragominas,100,BR,1592095530,92,-2.97,-47.48,295.94,0.64
5870133,Nome,20,US,1592095769,48,64.5,-165.41,293.71,6.2
3382160,Cayenne,75,GF,1592095566,100,4.93,-52.33,297.15,1
3437062,San Juan del Paraná,23,PY,1592095769,54,-27.3,-55.97,286.15,5.1
1505991,Igarka,100,RU,1592095769,84,67.47,86.58,282.43,8.19
3576994,Cockburn Town,100,TC,1592095769,79,21.46,-71.14,301.11,4.92
1633419,Padang,20,ID,1592095769,66,-0.95,100.35,301.22,1.55
3374210,São Filipe,68,CV,1592095770,82,14.9,-24.5,297.63,3.92
3894426,Coyhaique,90,CL,1592095770,93,-45.58,-72.07,276.15,1.5
1651531,Ambon City,40,ID,1592095770,94,-3.7,128.18,299.15,3.1
2038665,Alihe,100,CN,1592095770,63,50.57,123.72,288.54,4.9
2416061,Sanguéya,100,GN,1592095770,87,10.7,-14.37,299.21,1.82
3572906,Andros Town,90,BS,1592095770,94,24.7,-77.77,295.15,5.1
1850523,Tateyama,90,JP,1592095770,100,34.98,139.87,295.37,1.5
5983607,Inuvik,75,CA,1592095771,27,68.35,-133.72,298.15,4.1
1804850,Kaiyuan,100,CN,1592095771,75,23.7,103.3,297.72,1.63
1265888,Kovūr,100,IN,1592095771,60,14.48,79.98,302.63,2.67
2206939,Bluff,0,NZ,1592095771,67,-46.6,168.33,280.29,3.39
1638368,Kaili,17,ID,1592095771,81,-3.46,120.21,297.3,0.98
2122493,Omsukchan,100,RU,1592095771,34,62.53,155.8,292.04,1.21
3361934,Saldanha,0,ZA,1592095771,81,-33.01,17.94,280.15,1.5
2980080,Saint-François,73,FR,1592095772,76,46.42,3.91,286.15,1.42
2031964,Darhan,0,MN,1592095772,46,49.49,105.92,292.89,4.35
5919850,Chapais,1,CA,1592095772,43,49.78,-74.85,284.15,3.1
2181625,Te Anau,0,NZ,1592095772,64,-45.42,167.72,283.23,1.72
1106677,Bambous Virieux,18,MU,1592095772,89,-20.34,57.76,294.26,1.34
1267390,Kavaratti,100,IN,1592095772,75,10.57,72.64,302.7,10.44
2063042,Port Hedland,1,AU,1592095773,53,-20.32,118.57,296.15,4.6
6316343,Alta Floresta,0,BR,1592095773,75,-9.88,-56.09,296.26,1.05
2015306,Tiksi,100,RU,1592095773,95,71.69,128.87,273.61,3.24
4026082,Lázaro Cárdenas,97,MX,1592095664,78,17.96,-102.2,300.86,3.89
3159954,Brønnøysund,97,NO,1592095773,93,65.46,12.2,284.15,0.5
2015913,Suntar,6,RU,1592095773,59,62.14,117.63,288.36,3.3
3520994,Puerto Escondido,56,MX,1592095565,71,15.85,-97.07,301.83,3.22
2391893,Savé,3,BJ,1592095774,91,8.04,2.49,297.04,2.06
1282256,Hithadhoo,100,MV,1592095774,69,-0.6,73.08,302.97,6.83
5924351,Clyde River,1,CA,1592095774,95,70.47,-68.59,273.15,5.1
5126209,Mastic Beach,0,US,1592095774,71,40.77,-72.85,292.04,2.26
2449893,Tessalit,86,ML,1592095774,12,20.2,1.01,308.14,5
1847947,Shingū,75,JP,1592095774,94,33.73,135.98,297.15,4.1
3354071,Oranjemund,0,NA,1592095775,41,-28.55,16.43,285.93,1.61
172515,Abu Samrah,0,SY,1592095775,43,35.3,37.18,291.59,1.6
3414079,Olafsvik,100,IS,1592095775,85,64.89,-23.71,280.12,7.34
4409896,Springfield,1,US,1592095775,42,37.22,-93.3,302.59,4.6
3418910,Upernavik,0,GL,1592095775,90,72.79,-56.15,273.95,1.37
3466980,Caravelas,0,BR,1592095776,89,-17.71,-39.25,295.17,1.57
3838859,Río Gallegos,4,AR,1592095776,92,-51.62,-69.22,272.15,2.1
2123621,Mago,100,RU,1592095776,91,53.25,140.18,280.11,1.97
5367788,Lompoc,0,US,1592095579,55,34.64,-120.46,291.15,10.3
2121385,Severo-Kuril'sk,100,RU,1592095776,92,50.68,156.12,277.96,10.13
2264557,Ponta do Sol,40,PT,1592095776,72,32.67,-17.1,292.15,1
2134814,Sola,90,VU,1592095776,74,-13.88,167.55,302.15,5.1
1788852,Xining,100,CN,1592095777,54,36.62,101.77,286.86,0.42
4255151,Bud,1,US,1592095777,52,39.45,-86.18,294.15,4.1
1015776,Bredasdorp,0,ZA,1592095777,81,-34.53,20.04,285.15,3.06
2173911,Broken Hill,0,AU,1592095777,76,-31.95,141.43,284.15,5.7
1490256,Talnakh,100,RU,1592095777,43,69.49,88.4,286.15,8
1168700,Ormara,34,PK,1592095777,83,25.21,64.64,301.2,1.83
189741,Lamu,30,KE,1592095777,77,-2.27,40.9,298.55,6.95
2688250,Norrtälje,0,SE,1592095778,63,59.76,18.7,289.82,0.89
2112802,Hasaki,75,JP,1592095778,94,35.73,140.83,295.93,2.1
3571592,Rock Sound,75,BS,1592095778,80,24.9,-76.2,299.32,8.94
3645532,Ciudad Bolivar,96,VE,1592095778,66,8.12,-63.55,301.23,5.26
3547867,Manzanillo,100,CU,1592095778,81,20.34,-77.12,299.19,1.14
143073,Ardakān,0,IR,1592095778,15,32.31,54.02,298.15,1
1487615,Vengerovo,0,RU,1592095779,73,55.68,76.75,281.41,5.82
2013727,Vanavara,100,RU,1592095779,90,60.34,102.28,287.84,1.71
150885,Old Shinyanga,21,TZ,1592095779,63,-3.55,33.4,293.09,3.64
3401188,Curuçá,14,BR,1592095779,94,-0.73,-47.85,296.53,1.91
3144369,Nordfjordeid,75,NO,1592095779,74,61.91,5.99,289.26,0.83
6324729,Halifax,100,CA,1592095770,79,44.65,-63.57,289.82,1.07
3443061,Chui,0,UY,1592095780,64,-33.7,-53.46,279.24,4.29
608324,Shetpe,0,KZ,1592095780,15,44.17,52.12,300.98,3.02
912628,Kasempa,0,ZM,1592095780,73,-13.46,25.83,284.23,2.54
2318921,Wukari,91,NG,1592095780,83,7.85,9.78,297.77,1.69
1801934,Luohe,80,CN,1592095780,40,33.57,114.04,305.67,5.54
2139521,Noumea,75,NC,1592095780,51,-22.28,166.46,300.15,3.6
1328421,Pathein,63,MM,1592095664,76,16.78,94.73,302.44,3.19
6167817,Torbay,40,CA,1592095781,93,47.67,-52.73,291.15,5.1
3155152,Gravdal,100,NO,1592095781,73,68.12,13.5,283.99,3.34
86049,Jalu,0,LY,1592095781,36,29.03,21.55,295.59,3.81
2304548,Anloga,20,GH,1592095781,88,5.79,0.9,299.15,2.1
2170089,Craigieburn,20,AU,1592095781,66,-37.6,144.95,285.93,4.6
176758,Kaputa,0,ZM,1592095781,56,-8.47,29.66,291.26,3.32
1259385,Port Blair,100,IN,1592095782,82,11.67,92.75,301.82,6.08
3936456,Lima,90,PE,1592095726,77,-12.04,-77.03,291.15,3.6
3441890,Departamento de Maldonado,75,UY,1592095782,76,-34.67,-54.92,283.71,7.2
336350,Goba,100,ET,1592095782,85,7.02,39.98,283.4,0.45
1512101,Agirish,2,RU,1592095782,68,61.92,63.02,279.03,3.81
3573374,The Valley,20,AI,1592095516,70,18.22,-63.06,302.15,4.1
2137748,Voh,12,NC,1592095782,59,-20.97,164.7,299.32,3.76
1622318,Waingapu,63,ID,1592095783,74,-9.66,120.26,301.01,6.45
586925,Buzovna,0,AZ,1592095783,88,40.52,50.11,293.15,4.1
358620,Safaga,0,EG,1592095783,20,26.73,33.94,304.15,2.6
292968,Abu Dhabi,0,AE,1592095505,89,24.47,54.37,304.26,1
5866063,Kenai,1,US,1592095783,51,60.55,-151.26,291.15,4.6
712041,Blyznyuky,0,UA,1592095783,96,48.86,36.56,289.17,3.21
5129852,Oneonta,0,US,1592095707,70,42.45,-75.06,284.26,1.68
2177069,Ballina,75,AU,1592095783,78,-28.87,153.57,296.15,5.7
6162949,Terrace,75,CA,1592095748,67,54.52,-128.6,287.15,3.1
2541479,Nador,2,MA,1592095784,43,35.17,-2.93,295.15,2.6
939676,Willowmore,92,ZA,1592095784,51,-33.29,23.49,278.7,2.12
1487022,Vlasikha,20,RU,1592095784,63,53.3,83.57,291.15,4
1486321,Yar-Sale,62,RU,1592095784,60,66.83,70.83,281.37,7.19
3412093,Vestmannaeyjar,66,IS,1592095784,79,63.44,-20.27,281.15,4.31
3530103,San Miguel de Cozumel,75,MX,1592095785,94,20.51,-86.95,299.82,2.68
364933,Umm Kaddadah,0,SD,1592095785,22,13.6,26.69,305.22,2.83
5525584,Lubbock,20,US,1592095785,16,33.6,-101.83,306.15,10.3
3421982,Maniitsoq,100,GL,1592095785,91,65.42,-52.9,277.7,5.06
2270385,Camacha,40,PT,1592095785,82,33.08,-16.33,292.15,2.6
541116,Kresttsy,0,RU,1592095786,75,58.25,32.52,282.84,3.16
306112,Kozan,20,TR,1592095786,77,37.46,35.82,292.04,1.5
57000,Hobyo,100,SO,1592095786,70,5.35,48.53,299.58,9.14
3466165,Cidreira,95,BR,1592095786,61,-30.18,-50.21,285.7,7.28
5526337,Midland,1,US,1592095786,18,32,-102.08,306.15,6.7
1649150,Bengkulu,0,ID,1592095521,77,-3.8,102.27,298.71,1.46
2409019,Gberia Fotombu,100,SL,1592095786,93,9.88,-11.17,293.8,0.72
2964180,Galway,40,IE,1592095587,93,53.27,-9.05,286.15,2.1
3372707,Ribeira Grande,17,PT,1592095787,70,38.52,-28.7,289.73,7.53
1863997,Fukuechō,75,JP,1592095787,100,32.69,128.84,297.15,7.7
4033557,Tautira,20,PF,1592095787,66,-17.73,-149.15,304.15,3.1
6113406,Prince Rupert,90,CA,1592095726,82,54.32,-130.32,286.15,1.5
5859699,College,75,US,1592095787,31,64.86,-147.8,299.15,2.81
4513583,Hamilton,8,US,1592095556,65,39.18,-84.53,294.82,1.34
149658,Tabora,19,TZ,1592095787,59,-5.02,32.8,290.71,2.64
6149996,Smithers,40,CA,1592095501,51,54.78,-127.17,288.15,4.1
8079926,Labuhan,100,ID,1592095788,89,-6.88,112.21,298.42,3.67
3988392,Rosarito,5,MX,1592095788,64,32.33,-117.03,295.93,5.1
2712414,Gävle,99,SE,1592095788,94,60.67,17.14,283.15,0.45
3893629,Coquimbo,0,CL,1592095788,67,-29.95,-71.34,287.15,3.6
2084442,Vanimo,1,PG,1592095788,62,-2.67,141.3,303.52,2.24
4692856,Galveston,1,US,1592095789,48,29.37,-94.97,302.59,2.6
1242110,Kalmunai,23,LK,1592095789,78,7.42,81.82,300.51,1.85
713749,Okhtyrka,4,UA,1592095789,92,50.31,34.9,289.84,3.07
352733,Marsá Maţrūḩ,0,EG,1592095789,73,31.35,27.25,294.15,4.6
5864145,Homer,1,US,1592095636,54,59.64,-151.55,288.15,8.2
1630723,Poso,5,ID,1592095789,61,-1.4,120.75,302.46,0.99
2028462,Ulaanbaatar,0,MN,1592095789,50,47.91,106.88,285.15,1.59
1641977,Kalianget,100,ID,1592095790,79,-7.05,113.93,300.94,4.59
5917430,Caronport,100,CA,1592095790,44,50.45,-105.82,302.04,6.26
4161075,LaBelle,1,US,1592095790,83,26.76,-81.44,299.15,2.6
1862627,Himeji,100,JP,1592095790,99,34.82,134.7,296.48,5.01
986717,Kruisfontein,99,ZA,1592095790,59,-34,24.73,283.97,2.1
3665202,Aripuanã,19,BR,1592095791,85,-9.17,-60.63,296.95,0.66
2986732,Ploemeur,100,FR,1592095791,93,47.73,-3.43,288.15,5.1
1626542,Sorong,48,ID,1592095672,73,-0.88,131.25,301.03,2.08
1790437,Zhuhai,40,CN,1592095791,88,22.28,113.57,302.04,9.3
3372964,Lagoa,80,PT,1592095791,71,39.05,-27.98,289.38,7.16
2127202,Anadyr,23,RU,1592095791,51,64.75,177.48,289.15,9
4034307,Mahina,20,PF,1592095791,66,-17.51,-149.49,304.15,3.1
779554,Honningsvåg,98,NO,1592095791,62,70.98,25.97,284.28,4.56
3387204,Soure,2,BR,1592095792,81,-0.72,-48.52,299.62,4.35
3521108,Progreso,75,MX,1592095792,69,21.28,-89.67,301.48,4.1
5746545,Portland,75,US,1592095687,72,45.52,-122.68,289.15,4.1
372884,Kapoeta,57,SS,1592095792,81,4.77,33.59,295.97,1.25
2444219,Gouré,0,NE,1592095792,34,13.98,10.27,303.13,3.8
3840300,Presidencia Roque Sáenz Peña,45,AR,1592095792,49,-26.79,-60.44,283.71,0.45
3860443,Comodoro Rivadavia,100,AR,1592095792,59,-45.87,-67.5,278.15,2.6
5554428,Ketchikan,90,US,1592095793,93,55.34,-131.65,285.15,5.1
3430545,Morón,0,AR,1592095556,55,-34.65,-58.62,280.93,1.5
1065158,Farafangana,100,MG,1592095793,92,-22.82,47.83,291.83,4.94
3347019,Mossamedes,0,AO,1592095793,67,-15.2,12.15,293.41,1.86
1507390,Dikson,100,RU,1592095793,86,73.51,80.55,274.97,4.62
1045114,Inhambane,39,MZ,1592095793,76,-23.86,35.38,289.79,3.48
2027786,Amga,4,RU,1592095794,42,60.9,131.96,293.83,2.98
103630,Najrān,100,SA,1592095794,17,17.49,44.13,300.15,0.39
2122605,Okhotsk,1,RU,1592095794,66,59.38,143.3,287.38,2.01
5850554,Makakilo City,20,US,1592095794,45,21.35,-158.09,303.15,5.7
105298,Jizan,100,SA,1592095794,70,17.33,42.67,306.15,2.6
2171722,Charters Towers,80,AU,1592095795,76,-20.1,146.27,297.33,1.64
3927942,Tambopata,0,PE,1592095795,85,-12.73,-69.18,296.88,1.19
2172880,Byron Bay,75,AU,1592095240,78,-28.65,153.62,296.15,5.7
485660,Tsimmerbude,0,RU,1592095795,72,54.67,20.13,288.15,5
2377450,Nouakchott,99,MR,1592095795,69,18.09,-15.98,298.15,3.1
1283285,Jumla,1,NP,1592095795,61,29.27,82.18,290.15,0.81
152718,Mtwango,0,TZ,1592095796,75,-9.02,34.8,283.19,4.14
2136825,Isangel,90,VU,1592095796,78,-19.55,169.27,299.15,4.1
2037252,Genhe,0,CN,1592095796,39,50.78,121.52,289.46,4.78
685858,Bahna,2,RO,1592095796,82,46.78,26.78,293.15,5.1
3014213,Guipavas,0,FR,1592095796,93,48.44,-4.4,286.15,1.5
2396253,Tchibanga,63,GA,1592095796,98,-2.85,11.03,293.07,0.45
3664980,Boa Vista,75,BR,1592095797,74,2.82,-60.67,301.15,2.6
6255012,Flinders,1,AU,1592095797,69,-34.58,150.86,292.04,7.15
6165406,Thompson,75,CA,1592095797,30,55.74,-97.86,293.15,5.1
3407762,Amapá,100,BR,1592095797,97,1,-52,295.57,0.77
3139597,Sistranda,1,NO,1592095797,93,63.73,8.83,285.15,2.1
6945992,Betsiamites,1,CA,1592095797,58,48.94,-68.65,285.15,2.6
2980915,Arrondissement de Saint-Denis,75,FR,1592095797,72,48.92,2.33,290.15,2.6
1791636,Weinan,1,CN,1592095798,78,34.5,109.51,299.82,1
3372472,Vila Franca do Campo,20,PT,1592095798,82,37.72,-25.43,287.15,2.6
3380290,Sinnamary,80,GF,1592095798,85,5.38,-52.95,298.11,1.32
3697838,Contamana,0,PE,1592095798,71,-7.33,-75.02,298.19,0.6
1295765,Sittwe,100,MM,1592095798,82,20.15,92.9,301.65,2.04
934479,Grand Gaube,7,MU,1592095798,89,-20.01,57.66,294.26,1.34
1856392,Muroto-misakicho,75,JP,1592095798,94,33.28,134.15,298.15,3.1
367544,Sawākin,0,SD,1592095799,54,19.11,37.33,302.54,1.67
1651461,Amuntai,25,ID,1592095799,74,-2.42,115.25,302.08,0.44
3932145,Pisco,90,PE,1592095799,82,-13.7,-76.22,291.15,3.6
3843123,Neuquén,100,AR,1592095692,65,-38.95,-68.06,280.15,3.76
681353,Cizer,0,RO,1592095799,100,47.07,22.88,289.26,2.6
1795196,Tongchuanshi,100,CN,1592095799,18,35.08,109.09,299.37,3.06
6149374,Slave Lake,75,CA,1592095800,77,55.28,-114.77,290.15,2.1
1507116,Dudinka,100,RU,1592095800,43,69.41,86.18,286.15,8
3176959,Florence,40,IT,1592095749,100,43.77,11.25,287.59,2.1
2514651,Los Llanos de Aridane,40,ES,1592095800,73,28.66,-17.92,294.15,3.1
2686469,Örnsköldsvik,12,SE,1592095800,81,63.29,18.72,279.15,1.5
2126199,Cherskiy,0,RU,1592095800,39,68.75,161.3,293.2,5.31
153759,Misungwi,89,TZ,1592095800,62,-2.85,33.08,294.11,1.35
108410,Riyadh,0,SA,1592095583,28,24.69,46.72,301.15,0.79
2158767,Mareeba,44,AU,1592095610,84,-17,145.43,299.26,1.34
4013679,Coahuayana Viejo,75,MX,1592095801,65,18.73,-103.68,300.15,5.1
1244926,Hambantota,0,LK,1592095801,78,6.12,81.12,300.64,7.53
5546220,Saint George,1,US,1592095728,3,37.1,-113.58,306.15,12.3
4231997,Avera,1,US,1592095801,57,33.19,-82.53,299.15,1.5
2120048,Ust-Nera,69,RU,1592095801,32,64.57,143.2,293.52,0.83
934322,Mahébourg,12,MU,1592095802,89,-20.41,57.7,294.26,1.34
1814093,Dali,100,CN,1592095802,82,25.7,100.18,292.73,1.41
1608462,Nam Som,75,TH,1592095802,100,17.77,102.19,298.15,1
6096551,Pangnirtung,57,CA,1592095802,81,66.15,-65.71,275.44,1.18
3167595,Santa Margherita Ligure,75,IT,1592095803,88,44.33,9.21,291.15,2.6
2014624,Udachny,90,RU,1592095803,100,66.42,112.4,277.15,3
5955902,Fort Nelson,90,CA,1592095561,93,58.81,-122.7,286.15,2.1
935214,Saint-Pierre,40,RE,1592095803,77,-21.34,55.48,292.15,2.6
2094027,Kieta,96,PG,1592095803,66,-6.22,155.63,303.18,2.58
485215,Synya,100,RU,1592095803,78,65.37,58.04,279.87,3.27
286621,Salalah,40,OM,1592095684,89,17.02,54.09,302.15,1.5
4212684,Newnan,1,US,1592095804,54,33.38,-84.8,299.26,1.06
2015179,Tommot,77,RU,1592095804,60,58.96,126.29,291.14,3.1
10722858,Forsytheganj,100,BY,1592095804,95,52.63,29.73,287.58,6.6
2064735,Nhulunbuy,90,AU,1592095804,78,-12.23,136.77,300.15,6.7
519062,Novoanninskiy,55,RU,1592095804,64,50.53,42.67,294.26,4.47
2028164,Deputatsky,56,RU,1592095804,44,69.3,139.9,291.34,2.78
5354943,Half Moon Bay,20,US,1592095784,45,37.46,-122.43,294.82,6.7
494970,Sheltozero,11,RU,1592095805,76,61.37,35.37,282.91,2.11
6078372,Moose Factory,1,CA,1592095805,46,51.26,-80.61,285.15,4.1
1655124,Phonhong,75,LA,1592095805,100,18.5,102.42,298.15,1
2178753,Kirakira,12,SB,1592095805,73,-10.45,161.92,302.61,4.65
1808722,Hefei,75,CN,1592095529,100,31.86,117.28,299.15,2
3533462,Acapulco de Juárez,40,MX,1592095705,74,16.86,-99.89,303.15,3.1
2108502,Honiara,20,SB,1592095806,66,-9.43,159.95,305.15,6.2
3467577,Canavieiras,36,BR,1592095626,88,-15.68,-38.95,295.38,1
686090,Asău,2,RO,1592095806,85,46.43,26.4,289.82,2.16
2135517,Norsup,75,VU,1592095806,78,-16.07,167.38,300.15,4.1
2253354,Dakar,96,SN,1592095150,88,14.69,-17.44,299.15,4.1
1263622,Mānsa,0,IN,1592095806,22,29.98,75.38,307.67,1.75
3654410,Manta,40,EC,1592095529,83,-0.95,-80.73,297.15,2.1
64814,Bandarbeyla,100,SO,1592095807,63,9.49,50.81,300.61,12.33
637292,Savonlinna,0,FI,1592095807,93,61.87,28.88,282.15,0.5
3351663,Benguela,4,AO,1592095807,85,-12.58,13.41,292.66,0.61
1268408,Kālikāpur,100,IN,1592095807,79,22.62,86.28,302.01,1.27
4944903,Nantucket,20,US,1592095608,77,41.28,-70.1,289.82,5.1
962367,Richards Bay,0,ZA,1592095807,53,-28.78,32.04,285.51,2.37
695104,Ruska Poliana,98,UA,1592095808,94,49.42,31.92,291.16,4.19
6148373,Sioux Lookout,20,CA,1592095538,34,50.1,-91.92,293.15,3.6
3163146,Andenes,70,NO,1592095808,58,69.31,16.12,287.15,1.5
2025241,Churapcha,0,RU,1592095808,43,62,132.43,293.71,4.63
1152194,Mae Sai,20,TH,1592095808,94,20.43,99.88,300.37,1.5
5030884,Hugo,0,US,1592095808,48,45.16,-92.99,293.71,0.45
3675504,Manaure,100,CO,1592095809,71,11.78,-72.44,302.46,6.76
5838199,Sheridan,1,US,1592095809,12,44.83,-106.92,307.59,5.7
1082243,Ambilobe,4,MG,1592095809,82,-13.2,49.05,291.74,1.36
4033356,Tiarei,20,PF,1592095809,66,-17.53,-149.33,304.15,3.1
197745,Garissa,31,KE,1592095809,68,-0.45,39.64,297.3,7.11
102527,Sakakah,0,SA,1592095809,13,29.97,40.21,297.15,2.83
624785,Navahrudak,95,BY,1592095809,80,53.6,25.83,285.13,6.26
1708743,Kinablangan,69,PH,1592095810,65,7.69,126.55,303.13,1.16
53372,Oodweyne,100,SO,1592095810,64,9.41,45.06,295.16,5.97
3020850,Draguignan,0,FR,1592095810,77,43.53,6.47,289.15,6.2
779350,Karasjok,100,NO,1592095810,48,69.47,25.51,289.15,10.3
3461370,Imbituba,75,BR,1592095704,59,-28.24,-48.67,291.15,3.6
2132606,Samarai,0,PG,1592095810,82,-10.62,150.67,300.69,5.57
3393536,Olinda,75,BR,1592095810,94,-8.01,-34.86,297.15,1
152042,Naberera,61,TZ,1592095810,87,-4.2,36.93,287.28,2.87
553766,Kamenka,100,RU,1592095811,62,51.32,42.77,292.59,6.79
1257845,Saugor,100,IN,1592095811,67,23.83,78.72,300.31,1.02
464687,Zaraysk,79,RU,1592095811,82,54.77,38.88,284.26,2.24
3985168,San Patricio,40,MX,1592095811,78,19.22,-104.7,301.15,7.2
359783,Assiut,0,EG,1592095811,37,27.18,31.18,301.15,7.2
3664525,Codajás,100,BR,1592095643,95,-3.84,-62.06,297.25,0.78
1491230,Sovetskiy,84,RU,1592095812,64,61.36,63.58,279.76,4.28
3688451,Buenaventura,100,CO,1592095812,92,3.88,-77.03,297.97,1.05
2121025,Srednekolymsk,0,RU,1592095812,33,67.45,153.68,296.48,2.58
3988421,Rosamorada,100,MX,1592095812,55,22.12,-105.21,303.34,2.91
6166142,Thunder Bay,20,CA,1592095577,38,48.4,-89.32,289.15,4.1
1797929,Qingdao,20,CN,1592095813,74,36.1,120.37,299.26,2
3839307,Rawson,100,AR,1592095813,61,-43.3,-65.1,279.49,4.42
3346821,Ondjiva,0,AO,1592095813,49,-17.07,15.73,283.05,3.46
2070998,Geraldton,46,AU,1592095813,87,-28.77,114.6,284.15,4.1
2016307,Solnechnyy,100,RU,1592095813,59,50.72,136.63,285.47,3.71
2167426,Emerald,75,AU,1592095813,100,-23.53,148.17,292.15,4.6
2126710,Beringovskiy,0,RU,1592095813,68,63.05,179.32,281.5,3.96
3557689,Guantánamo,75,CU,1592095814,74,20.14,-75.21,300.15,3.6
5836068,Rawlins,1,US,1592095814,17,41.79,-107.24,301.15,9.3
4465088,Elizabeth City,0,US,1592095814,76,36.29,-76.25,293.15,2.89
3622547,Paraíso,75,CR,1592095814,94,9.84,-83.87,293.15,1.5
137956,Dārāb,0,IR,1592095814,17,28.75,54.54,297.5,1.24
6943832,Riviere-au-Renard,20,CA,1592095814,50,49,-64.4,285.15,2.1
1502073,Krasnosel'kup,100,RU,1592095814,87,65.7,82.47,282.85,8.93
213940,Kasongo,7,CD,1592095815,76,-4.45,26.67,293.18,0.4
1524606,Derzhavīnsk,0,KZ,1592095815,62,51.1,66.32,286.15,8.14
2691743,Mjölby,45,SE,1592095815,76,58.33,15.12,285.15,2.6
2264923,Peniche,63,PT,1592095815,88,39.36,-9.38,288.15,1.73
1168749,Nushki,0,PK,1592095815,17,29.55,66.02,295.28,1.07
1272864,Dhārchula,64,IN,1592095815,58,29.85,80.53,295.23,0.89
148619,Ağdam,0,AZ,1592095815,50,39.99,46.93,294.55,2.43
60019,Eyl,100,SO,1592095816,57,7.98,49.82,301.01,10.86
3723593,Jérémie,100,HT,1592095816,72,18.65,-74.12,300.29,0.45
2108857,Gizo Government Station,28,SB,1592095816,71,-8.1,156.84,302.27,1.34
1800657,Mentougou,0,CN,1592095816,33,39.94,116.09,301.48,0.45
3136690,Stokmarknes,96,NO,1592095816,67,68.56,14.91,286.48,2.38
2092164,Lorengau,0,PG,1592095816,68,-2.02,147.27,303.14,4.21
2038421,Bayan,64,CN,1592095817,77,46.08,127.4,290.93,7.74
2171099,Codrington,100,AU,1592095817,84,-38.27,141.97,284.38,8.16
1636426,Manggar,64,ID,1592095817,78,-2.88,108.27,302.04,7.55
2240449,Luanda,75,AO,1592095299,83,-8.84,13.23,295.15,1.5
3013748,Hauterive,2,FR,1592095817,76,46.09,3.45,286.15,1.5
2396518,Port-Gentil,38,GA,1592095817,88,-0.72,8.78,296.4,5.47
2192362,Christchurch,32,NZ,1592095818,70,-43.53,172.63,283.71,4.6
3870243,Taltal,21,CL,1592095818,72,-25.4,-70.48,287.74,1.27
2017658,Preobrazheniye,100,RU,1592095818,71,42.9,133.91,292.8,2.37
1715335,Davila,40,PH,1592095818,74,18.47,120.58,302.15,2.1
2012530,Zhigansk,100,RU,1592095819,79,66.77,123.37,286.93,8.7
3386213,Touros,95,BR,1592095819,100,-5.2,-35.46,297.15,1.5
3144733,Nesbyen,10,NO,1592095819,72,60.57,9.1,283.71,1.81
4174600,Sweetwater,75,US,1592095819,69,25.76,-80.37,301.48,5.7
2126785,Belaya Gora,0,RU,1592095819,31,68.53,146.42,297.82,0.12
2018735,Nyurba,0,RU,1592095819,62,63.28,118.33,288.3,3.48
2319133,Warri,100,NG,1592095819,96,5.52,5.75,297.41,2.44
1254709,Tezu,96,IN,1592095820,76,27.92,96.17,298.54,0.32
778707,Mehamn,74,NO,1592095820,55,71.04,27.85,284.92,2.75
3388847,São Félix do Xingu,0,BR,1592095820,78,-6.64,-51.99,295.75,1.32
5557293,Sitka,90,US,1592095820,81,57.05,-135.33,285.15,3.1
2156643,Mount Gambier,75,AU,1592095820,93,-37.83,140.77,283.15,6.2
2068079,Kwinana,90,AU,1592095820,100,-32.25,115.77,288.71,4.1
2414659,Tokonou,94,GN,1592095820,97,9.65,-9.78,294.25,0.66
3904906,Santa Cruz de la Sierra,75,BO,1592095820,82,-17.8,-63.17,289.15,12.3
6539748,Orvieto,93,IT,1592095821,85,42.72,12.11,290.93,0.89
2381972,Adrar,0,MR,1592095821,18,20.5,-10.07,308.38,6.43
6157536,Stony Plain,75,CA,1592095821,68,53.53,-114,295.15,7.2
3118304,Llanes,21,ES,1592095821,97,43.42,-4.75,288.71,0.45
1650434,Bambanglipuro,13,ID,1592095821,80,-7.95,110.28,300.87,2.87
3491102,Whithorn,40,JM,1592095821,88,18.26,-78.04,300.37,1.5
3357804,Eenhana,0,NA,1592095822,53,-17.47,16.33,283.15,1.5
1141857,Gardez,0,AF,1592095822,54,33.6,69.23,288.33,1.29
2409914,Bonthe,100,SL,1592095822,87,7.53,-12.51,299.18,3.08
333795,Jijiga,100,ET,1592095822,88,9.35,42.8,290.07,5.84
3984997,San Quintín,0,MX,1592095822,63,30.48,-115.95,292.89,9
3033123,Besançon,100,FR,1592095822,100,47.25,6.02,285.93,1.91
3451138,Rio Grande,0,BR,1592095545,71,-32.03,-52.1,280.93,0.45
1488903,Turukhansk,41,RU,1592095823,80,65.82,87.98,285.73,7.71
1067565,Beloha,0,MG,1592095823,79,-25.17,45.05,286.76,2.43
3579925,St. George's,40,GD,1592095823,74,12.06,-61.75,301.15,7.2
5915327,Cap-aux-Meules,20,CA,1592095823,76,47.38,-61.86,283.15,5.1
2460954,Araouane,0,ML,1592095823,17,18.9,-3.53,308.06,0.21
2022143,Khuzhir,1,RU,1592095823,69,53.19,107.34,285.45,1.48
1712961,Gigmoto,100,PH,1592095823,77,13.78,124.39,302.26,3.19
1808744,Hede,47,CN,1592095824,74,33.77,120.25,301.09,2.46
1626099,Sumenep,100,ID,1592095824,81,-7.02,113.87,300.51,4.21
2194098,Ahipara,55,NZ,1592095824,79,-35.17,173.17,289.18,4.17
540761,Kropotkin,0,RU,1592095824,83,45.44,40.58,293.71,1.16
3361142,Springbok,0,ZA,1592095824,52,-29.66,17.89,278.82,3.86
556268,Ostrovnoy,45,RU,1592095824,60,68.05,39.51,286.6,8.18
2027109,Barguzin,35,RU,1592095825,51,53.62,109.62,292.44,2.16
5261790,Marathon,1,US,1592095825,36,44.9,-89.77,290.15,5.7
293842,Kiryat Gat,0,IL,1592095560,79,31.61,34.76,295.93,0.89
3408269,Afuá,91,BR,1592095825,91,-0.16,-50.39,297.47,1.98
1699246,Moog,100,PH,1592095825,77,8.6,124.47,302.04,0.89
3910094,Monteagudo,100,BO,1592095825,75,-19.82,-63.98,285.89,3.4
3385658,Uruçuí,28,BR,1592095825,61,-7.23,-44.56,297.32,2.48
797213,Pervomayskoye,13,RU,1592095825,67,43.92,46.71,290.86,1.89
1328121,Bogale,85,MM,1592095826,82,16.28,95.4,301.78,3.61
2242001,Caxito,75,AO,1592095826,83,-8.58,13.66,295.15,1.5
2657832,Aberdeen,90,GB,1592095538,100,57.14,-2.1,284.82,1.5
292223,Dubai,0,AE,1592095618,79,25.26,55.3,305.15,2.1
1488414,Urengoy,100,RU,1592095826,46,65.97,78.37,284.84,10.76
2079582,Alyangula,90,AU,1592095826,69,-13.85,136.42,300.15,2.6
3175096,Laas,90,IT,1592095826,87,46.62,10.7,283.15,1.64
2639577,Reading,0,GB,1592095791,87,51.46,-0.97,288.15,2.1
5856516,‘Āhuimanu,20,US,1592095827,45,21.44,-157.84,304.15,6.7
2450173,Taoudenni,0,ML,1592095827,13,22.68,-3.98,310.32,8.13
1796236,Shanghai,96,CN,1592095428,74,31.22,121.46,305.93,2
608270,Shubarshi,0,KZ,1592095827,82,48.59,57.19,293.27,3.37
480884,Bolshoye Nagatkino,37,RU,1592095827,81,54.52,47.97,284.15,3
907111,Mazabuka,10,ZM,1592095827,93,-15.86,27.75,286.11,4.32
